"project_id","project_location_id","precision_code","geoname_id","place_name","latitude","longitude","location_type_code","location_type_name","gazetteer_adm_code","gazetteer_adm_name","location_class","geographic_exactness","is_geocoded","project_title","start_actual_isodate","start_actual_type","end_actual_isodate","end_actual_type","donors","donors_iso3","recipients","recipients_iso3","ad_sector_codes","ad_sector_names","ad_purpose_codes","ad_purpose_names","status","transactions_start_year","transactions_end_year","total_commitments","total_disbursements","even_split_commitments","even_split_disbursements"
"SL/000201","SL/000201_2410557","1","2410557","Krigbema","8.33259","-10.32406","PPL","populated place","6295630|6255146|SL|01|2410557","Earth|Africa|Sierra Leone|Eastern Province|Krigbema","2","1","1","Transport Sector Project","1995-12-31","start-actual","2004-12-30","end-actual","World Bank","DAC","Sierra Leone","SLE","998","Unallocated / Unspecified","99810","Sectors not specified","Completion","1995","2004","","","",""
"SL/000201","SL/000201_2405978","1","2405978","Mano","7.90484","-11.30349","PPL","populated place","6295630|6255146|SL|01|2405978","Earth|Africa|Sierra Leone|Eastern Province|Mano","2","1","1","Transport Sector Project","1995-12-31","start-actual","2004-12-30","end-actual","World Bank","DAC","Sierra Leone","SLE","998","Unallocated / Unspecified","99810","Sectors not specified","Completion","1995","2004","","","",""
"SL/000201","SL/000201_2405013","1","2405013","Moyamba","8.15898","-12.43168","PPL","populated place","6295630|6255146|SL|03|2405013","Earth|Africa|Sierra Leone|Southern Province|Moyamba","2","1","1","Transport Sector Project","1995-12-31","start-actual","2004-12-30","end-actual","World Bank","DAC","Sierra Leone","SLE","998","Unallocated / Unspecified","99810","Sectors not specified","Completion","1995","2004","","","",""
"SL/000201","SL/000201_2566584","1","2566584","Petifu Junction","8.69639","-13.10528","PPL","populated place","6295630|6255146|SL|02|2566584","Earth|Africa|Sierra Leone|Northern Province|Petifu Junction","2","1","1","Transport Sector Project","1995-12-31","start-actual","2004-12-30","end-actual","World Bank","DAC","Sierra Leone","SLE","998","Unallocated / Unspecified","99810","Sectors not specified","Completion","1995","2004","","","",""
"SL/000201","SL/000201_2404433","1","2404433","Port Loko","8.76609","-12.78696","PPL","populated place","6295630|6255146|SL|02|2404433","Earth|Africa|Sierra Leone|Northern Province|Port Loko","2","1","1","Transport Sector Project","1995-12-31","start-actual","2004-12-30","end-actual","World Bank","DAC","Sierra Leone","SLE","998","Unallocated / Unspecified","99810","Sectors not specified","Completion","1995","2004","","","",""
"SL/000201","SL/000201_2403971","1","2403971","Sembehun","8.25","-10.76667","PPL","populated place","6295630|6255146|SL|01|2403971","Earth|Africa|Sierra Leone|Eastern Province|Sembehun","2","1","1","Transport Sector Project","1995-12-31","start-actual","2004-12-30","end-actual","World Bank","DAC","Sierra Leone","SLE","998","Unallocated / Unspecified","99810","Sectors not specified","Completion","1995","2004","","","",""
"SL/000201","SL/000201_2403697","1","2403697","Sumbuya","8.04818","-11.79217","PPL","populated place","6295630|6255146|SL|03|2403697","Earth|Africa|Sierra Leone|Southern Province|Sumbuya","2","1","1","Transport Sector Project","1995-12-31","start-actual","2004-12-30","end-actual","World Bank","DAC","Sierra Leone","SLE","998","Unallocated / Unspecified","99810","Sectors not specified","Completion","1995","2004","","","",""
"SL/000201","SL/000201_2403643","1","2403643","Taiama","8.2013","-12.05996","PPL","populated place","6295630|6255146|SL|03|2403643","Earth|Africa|Sierra Leone|Southern Province|Taiama","2","1","1","Transport Sector Project","1995-12-31","start-actual","2004-12-30","end-actual","World Bank","DAC","Sierra Leone","SLE","998","Unallocated / Unspecified","99810","Sectors not specified","Completion","1995","2004","","","",""
"SL/000201","SL/000201_2410048","1","2410048","Bo","7.96472","-11.73833","PPLA","seat of a first-order administrative division","6295630|6255146|SL|03|2410048","Earth|Africa|Sierra Leone|Southern Province|Bo","2","1","1","Transport Sector Project","1995-12-31","start-actual","2004-12-30","end-actual","World Bank","DAC","Sierra Leone","SLE","998","Unallocated / Unspecified","99810","Sectors not specified","Completion","1995","2004","","","",""
"SL/000201","SL/000201_2407790","1","2407790","Kenema","7.87687","-11.19025","PPLA","seat of a first-order administrative division","6295630|6255146|SL|01|2407790","Earth|Africa|Sierra Leone|Eastern Province|Kenema","2","1","1","Transport Sector Project","1995-12-31","start-actual","2004-12-30","end-actual","World Bank","DAC","Sierra Leone","SLE","998","Unallocated / Unspecified","99810","Sectors not specified","Completion","1995","2004","","","",""
"SL/000201","SL/000201_2406407","1","2406407","Makeni","8.88605","-12.04418","PPLA","seat of a first-order administrative division","6295630|6255146|SL|02|2406407","Earth|Africa|Sierra Leone|Northern Province|Makeni","2","1","1","Transport Sector Project","1995-12-31","start-actual","2004-12-30","end-actual","World Bank","DAC","Sierra Leone","SLE","998","Unallocated / Unspecified","99810","Sectors not specified","Completion","1995","2004","","","",""
"SL/000201","SL/000201_2410021","3","2410021","Bo District","7.98877","-11.6734","ADM2","second-order administrative division","6295630|6255146|SL|03|2410021","Earth|Africa|Sierra Leone|Southern Province|Bo District","1","1","1","Transport Sector Project","1995-12-31","start-actual","2004-12-30","end-actual","World Bank","DAC","Sierra Leone","SLE","998","Unallocated / Unspecified","99810","Sectors not specified","Completion","1995","2004","","","",""
"SL/000201","SL/000201_2408249","3","2408249","Kailahun District","8.10768","-10.75146","ADM2","second-order administrative division","6295630|6255146|SL|01|2408249","Earth|Africa|Sierra Leone|Eastern Province|Kailahun District","1","1","1","Transport Sector Project","1995-12-31","start-actual","2004-12-30","end-actual","World Bank","DAC","Sierra Leone","SLE","998","Unallocated / Unspecified","99810","Sectors not specified","Completion","1995","2004","","","",""
"SL/000201","SL/000201_2407781","3","2407781","Kenema District","7.95171","-11.19004","ADM2","second-order administrative division","6295630|6255146|SL|01|2407781","Earth|Africa|Sierra Leone|Eastern Province|Kenema District","1","1","1","Transport Sector Project","1995-12-31","start-actual","2004-12-30","end-actual","World Bank","DAC","Sierra Leone","SLE","998","Unallocated / Unspecified","99810","Sectors not specified","Completion","1995","2004","","","",""
"SL/000201","SL/000201_2405008","3","2405008","Moyamba District","8.0629","-12.44401","ADM2","second-order administrative division","6295630|6255146|SL|03|2405008","Earth|Africa|Sierra Leone|Southern Province|Moyamba District","1","1","1","Transport Sector Project","1995-12-31","start-actual","2004-12-30","end-actual","World Bank","DAC","Sierra Leone","SLE","998","Unallocated / Unspecified","99810","Sectors not specified","Completion","1995","2004","","","",""
"SL/000201","SL/000201_2409306","1","2409306","Freetown","8.484","-13.22994","PPLC","capital of a political entity","6295630|6255146|SL|04|2409306","Earth|Africa|Sierra Leone|Western Area|Freetown","2","1","1","Transport Sector Project","1995-12-31","start-actual","2004-12-30","end-actual","World Bank","DAC","Sierra Leone","SLE","998","Unallocated / Unspecified","99810","Sectors not specified","Completion","1995","2004","","","",""
"SL/000201","SL/000201_2406918","1","2406918","Freetown-Lungi International Airport","8.61644","-13.19549","AIRP","airport","6295630|6255146|SL|02|2406918","Earth|Africa|Sierra Leone|Northern Province|Freetown-Lungi International Airport","3","1","1","Transport Sector Project","1995-12-31","start-actual","2004-12-30","end-actual","World Bank","DAC","Sierra Leone","SLE","998","Unallocated / Unspecified","99810","Sectors not specified","Completion","1995","2004","","","",""
"SL/001646","SL/001646_2405013","1","2405013","Moyamba","8.15898","-12.43168","PPL","populated place","6295630|6255146|SL|03|2405013","Earth|Africa|Sierra Leone|Southern Province|Moyamba","2","1","1","Service Contract - Techsult: Songo - Moyamba - Road","2012-04-12","start-actual","2012-04-26","","European Union (EU)","DAC","Sierra Leone","SLE","210","Transport and Storage","21020","Road transport","Implementation","2012","2012","23568.0","23568.0","5892.0","5892.0"
"SL/001646","SL/001646_2403753","1","2403753","Songo","8.36843","-12.93282","PPL","populated place","6295630|6255146|SL|02|2403753","Earth|Africa|Sierra Leone|Northern Province|Songo","2","1","1","Service Contract - Techsult: Songo - Moyamba - Road","2012-04-12","start-actual","2012-04-26","","European Union (EU)","DAC","Sierra Leone","SLE","210","Transport and Storage","21020","Road transport","Implementation","2012","2012","23568.0","23568.0","5892.0","5892.0"
"SL/001646","SL/001646_2405008","3","2405008","Moyamba District","8.0629","-12.44401","ADM2","second-order administrative division","6295630|6255146|SL|03|2405008","Earth|Africa|Sierra Leone|Southern Province|Moyamba District","1","1","1","Service Contract - Techsult: Songo - Moyamba - Road","2012-04-12","start-actual","2012-04-26","","European Union (EU)","DAC","Sierra Leone","SLE","210","Transport and Storage","21020","Road transport","Implementation","2012","2012","23568.0","23568.0","5892.0","5892.0"
"SL/001646","SL/001646_9179950","3","9179950","Western Area Rural","8.32319","-13.09485","ADM2","second-order administrative division","6295630|6255146|SL|04|9179950","Earth|Africa|Sierra Leone|Western Area|Western Area Rural","1","1","1","Service Contract - Techsult: Songo - Moyamba - Road","2012-04-12","start-actual","2012-04-26","","European Union (EU)","DAC","Sierra Leone","SLE","210","Transport and Storage","21020","Road transport","Implementation","2012","2012","23568.0","23568.0","5892.0","5892.0"
"SL/000950","SL/000950_2405013","1","2405013","Moyamba","8.15898","-12.43168","PPL","populated place","6295630|6255146|SL|03|2405013","Earth|Africa|Sierra Leone|Southern Province|Moyamba","2","1","1","HIV/AIDS Response Project (SHARP)","2002-03-25","start-actual","2009-12-30","end-actual","World Bank","DAC","Sierra Leone","SLE","130","Population Policies / Programmes and Reproductive Health","13040","STD control including HIV/AIDS","Completion","2002","2009","4194452.0","4194452.0","699075.333333","699075.333333"
"SL/000950","SL/000950_2404433","1","2404433","Port Loko","8.76609","-12.78696","PPL","populated place","6295630|6255146|SL|02|2404433","Earth|Africa|Sierra Leone|Northern Province|Port Loko","2","1","1","HIV/AIDS Response Project (SHARP)","2002-03-25","start-actual","2009-12-30","end-actual","World Bank","DAC","Sierra Leone","SLE","130","Population Policies / Programmes and Reproductive Health","13040","STD control including HIV/AIDS","Completion","2002","2009","4194452.0","4194452.0","699075.333333","699075.333333"
"SL/000950","SL/000950_2410048","1","2410048","Bo","7.96472","-11.73833","PPLA","seat of a first-order administrative division","6295630|6255146|SL|03|2410048","Earth|Africa|Sierra Leone|Southern Province|Bo","2","1","1","HIV/AIDS Response Project (SHARP)","2002-03-25","start-actual","2009-12-30","end-actual","World Bank","DAC","Sierra Leone","SLE","130","Population Policies / Programmes and Reproductive Health","13040","STD control including HIV/AIDS","Completion","2002","2009","4194452.0","4194452.0","699075.333333","699075.333333"
"SL/000950","SL/000950_2407790","1","2407790","Kenema","7.87687","-11.19025","PPLA","seat of a first-order administrative division","6295630|6255146|SL|01|2407790","Earth|Africa|Sierra Leone|Eastern Province|Kenema","2","1","1","HIV/AIDS Response Project (SHARP)","2002-03-25","start-actual","2009-12-30","end-actual","World Bank","DAC","Sierra Leone","SLE","130","Population Policies / Programmes and Reproductive Health","13040","STD control including HIV/AIDS","Completion","2002","2009","4194452.0","4194452.0","699075.333333","699075.333333"
"SL/000950","SL/000950_2409306","1","2409306","Freetown","8.484","-13.22994","PPLC","capital of a political entity","6295630|6255146|SL|04|2409306","Earth|Africa|Sierra Leone|Western Area|Freetown","2","1","1","HIV/AIDS Response Project (SHARP)","2002-03-25","start-actual","2009-12-30","end-actual","World Bank","DAC","Sierra Leone","SLE","130","Population Policies / Programmes and Reproductive Health","13040","STD control including HIV/AIDS","Completion","2002","2009","4194452.0","4194452.0","699075.333333","699075.333333"
"SL/000950","SL/000950_9180350","1","9180350","Connaught Hospital","8.48857","-13.23858","HSP","hospital","6295630|6255146|SL|04|9180350","Earth|Africa|Sierra Leone|Western Area|Connaught Hospital","3","1","1","HIV/AIDS Response Project (SHARP)","2002-03-25","start-actual","2009-12-30","end-actual","World Bank","DAC","Sierra Leone","SLE","130","Population Policies / Programmes and Reproductive Health","13040","STD control including HIV/AIDS","Completion","2002","2009","4194452.0","4194452.0","699075.333333","699075.333333"
"SL/001093","SL/001093_2405013","1","2405013","Moyamba","8.15898","-12.43168","PPL","populated place","6295630|6255146|SL|03|2405013","Earth|Africa|Sierra Leone|Southern Province|Moyamba","2","1","1","Development of sustainable pro-poor finance","2008-01-01","start-actual","2013-12-31","","UNDP","DAC","Sierra Leone","SLE","311","Agriculture","31120","Agricultural development","Completion","2008","2013","2079159.0","1893791.0","94507.2272727","86081.4090909"
"SL/001093","SL/001093_2404433","1","2404433","Port Loko","8.76609","-12.78696","PPL","populated place","6295630|6255146|SL|02|2404433","Earth|Africa|Sierra Leone|Northern Province|Port Loko","2","1","1","Development of sustainable pro-poor finance","2008-01-01","start-actual","2013-12-31","","UNDP","DAC","Sierra Leone","SLE","311","Agriculture","31120","Agricultural development","Completion","2008","2013","2079159.0","1893791.0","94507.2272727","86081.4090909"
"SL/001093","SL/001093_2408329","1","2408329","Kabala","9.58893","-11.55256","PPL","populated place","6295630|6255146|SL|02|2408329","Earth|Africa|Sierra Leone|Northern Province|Kabala","2","1","1","Development of sustainable pro-poor finance","2008-01-01","start-actual","2013-12-31","","UNDP","DAC","Sierra Leone","SLE","311","Agriculture","31120","Agricultural development","Completion","2008","2013","2079159.0","1893791.0","94507.2272727","86081.4090909"
"SL/001093","SL/001093_2403094","1","2403094","Waterloo","8.3389","-13.07091","PPL","populated place","6295630|6255146|SL|04|2403094","Earth|Africa|Sierra Leone|Western Area|Waterloo","2","1","1","Development of sustainable pro-poor finance","2008-01-01","start-actual","2013-12-31","","UNDP","DAC","Sierra Leone","SLE","311","Agriculture","31120","Agricultural development","Completion","2008","2013","2079159.0","1893791.0","94507.2272727","86081.4090909"
"SL/001093","SL/001093_2406916","1","2406916","Lunsar","8.68439","-12.53499","PPL","populated place","6295630|6255146|SL|02|2406916","Earth|Africa|Sierra Leone|Northern Province|Lunsar","2","1","1","Development of sustainable pro-poor finance","2008-01-01","start-actual","2013-12-31","","UNDP","DAC","Sierra Leone","SLE","311","Agriculture","31120","Agricultural development","Completion","2008","2013","2079159.0","1893791.0","94507.2272727","86081.4090909"
"SL/001093","SL/001093_2410065","1","2410065","Blama","7.87481","-11.34548","PPL","populated place","6295630|6255146|SL|01|2410065","Earth|Africa|Sierra Leone|Eastern Province|Blama","2","1","1","Development of sustainable pro-poor finance","2008-01-01","start-actual","2013-12-31","","UNDP","DAC","Sierra Leone","SLE","311","Agriculture","31120","Agricultural development","Completion","2008","2013","2079159.0","1893791.0","94507.2272727","86081.4090909"
"SL/001093","SL/001093_2406931","1","2406931","Lumley","8.46063","-13.26976","PPL","populated place","6295630|6255146|SL|04|2406931","Earth|Africa|Sierra Leone|Western Area|Lumley","2","1","1","Development of sustainable pro-poor finance","2008-01-01","start-actual","2013-12-31","","UNDP","DAC","Sierra Leone","SLE","311","Agriculture","31120","Agricultural development","Completion","2008","2013","2079159.0","1893791.0","94507.2272727","86081.4090909"
"SL/001093","SL/001093_2409663","1","2409663","Daru","7.98976","-10.84223","PPL","populated place","6295630|6255146|SL|01|2409663","Earth|Africa|Sierra Leone|Eastern Province|Daru","2","1","1","Development of sustainable pro-poor finance","2008-01-01","start-actual","2013-12-31","","UNDP","DAC","Sierra Leone","SLE","311","Agriculture","31120","Agricultural development","Completion","2008","2013","2079159.0","1893791.0","94507.2272727","86081.4090909"
"SL/001093","SL/001093_2408250","1","2408250","Kailahun","8.2789","-10.573","PPL","populated place","6295630|6255146|SL|01|2408250","Earth|Africa|Sierra Leone|Eastern Province|Kailahun","2","1","1","Development of sustainable pro-poor finance","2008-01-01","start-actual","2013-12-31","","UNDP","DAC","Sierra Leone","SLE","311","Agriculture","31120","Agricultural development","Completion","2008","2013","2079159.0","1893791.0","94507.2272727","86081.4090909"
"SL/001093","SL/001093_2408088","1","2408088","Kambia","9.12504","-12.91816","PPL","populated place","6295630|6255146|SL|02|2408088","Earth|Africa|Sierra Leone|Northern Province|Kambia","2","1","1","Development of sustainable pro-poor finance","2008-01-01","start-actual","2013-12-31","","UNDP","DAC","Sierra Leone","SLE","311","Agriculture","31120","Agricultural development","Completion","2008","2013","2079159.0","1893791.0","94507.2272727","86081.4090909"
"SL/001093","SL/001093_2406919","1","2406919","Lungi","8.90325","-12.51762","PPL","populated place","6295630|6255146|SL|02|2406919","Earth|Africa|Sierra Leone|Northern Province|Lungi","2","1","1","Development of sustainable pro-poor finance","2008-01-01","start-actual","2013-12-31","","UNDP","DAC","Sierra Leone","SLE","311","Agriculture","31120","Agricultural development","Completion","2008","2013","2079159.0","1893791.0","94507.2272727","86081.4090909"
"SL/001093","SL/001093_2407466","1","2407466","Kono Town","8.33333","-13.01667","PPL","populated place","6295630|6255146|SL|04|2407466","Earth|Africa|Sierra Leone|Western Area|Kono Town","2","1","1","Development of sustainable pro-poor finance","2008-01-01","start-actual","2013-12-31","","UNDP","DAC","Sierra Leone","SLE","311","Agriculture","31120","Agricultural development","Completion","2008","2013","2079159.0","1893791.0","94507.2272727","86081.4090909"
"SL/001093","SL/001093_2403078","1","2403078","Wellington","8.45008","-13.16961","PPL","populated place","6295630|6255146|SL|04|2403078","Earth|Africa|Sierra Leone|Western Area|Wellington","2","1","1","Development of sustainable pro-poor finance","2008-01-01","start-actual","2013-12-31","","UNDP","DAC","Sierra Leone","SLE","311","Agriculture","31120","Agricultural development","Completion","2008","2013","2079159.0","1893791.0","94507.2272727","86081.4090909"
"SL/001093","SL/001093_2404041","1","2404041","Segbwema","7.99471","-10.9502","PPL","populated place","6295630|6255146|SL|01|2404041","Earth|Africa|Sierra Leone|Eastern Province|Segbwema","2","1","1","Development of sustainable pro-poor finance","2008-01-01","start-actual","2013-12-31","","UNDP","DAC","Sierra Leone","SLE","311","Agriculture","31120","Agricultural development","Completion","2008","2013","2079159.0","1893791.0","94507.2272727","86081.4090909"
"SL/001093","SL/001093_2410310","1","2410310","Barmoi","9.09188","-12.74918","PPL","populated place","6295630|6255146|SL|02|2410310","Earth|Africa|Sierra Leone|Northern Province|Barmoi","2","1","1","Development of sustainable pro-poor finance","2008-01-01","start-actual","2013-12-31","","UNDP","DAC","Sierra Leone","SLE","311","Agriculture","31120","Agricultural development","Completion","2008","2013","2079159.0","1893791.0","94507.2272727","86081.4090909"
"SL/001093","SL/001093_2571039","1","2571039","Pujehun","7.35806","-11.72083","PPL","populated place","6295630|6255146|SL|03|2571039","Earth|Africa|Sierra Leone|Southern Province|Pujehun","2","1","1","Development of sustainable pro-poor finance","2008-01-01","start-actual","2013-12-31","","UNDP","DAC","Sierra Leone","SLE","311","Agriculture","31120","Agricultural development","Completion","2008","2013","2079159.0","1893791.0","94507.2272727","86081.4090909"
"SL/001093","SL/001093_2405550","1","2405550","Matru","7.62525","-11.83394","PPL","populated place","6295630|6255146|SL|03|2405550","Earth|Africa|Sierra Leone|Southern Province|Matru","2","1","1","Development of sustainable pro-poor finance","2008-01-01","start-actual","2013-12-31","","UNDP","DAC","Sierra Leone","SLE","311","Agriculture","31120","Agricultural development","Completion","2008","2013","2079159.0","1893791.0","94507.2272727","86081.4090909"
"SL/001093","SL/001093_2402689","1","2402689","Zimmi","7.31356","-11.30818","PPL","populated place","6295630|6255146|SL|03|2402689","Earth|Africa|Sierra Leone|Southern Province|Zimmi","2","1","1","Development of sustainable pro-poor finance","2008-01-01","start-actual","2013-12-31","","UNDP","DAC","Sierra Leone","SLE","311","Agriculture","31120","Agricultural development","Completion","2008","2013","2079159.0","1893791.0","94507.2272727","86081.4090909"
"SL/001093","SL/001093_2410048","1","2410048","Bo","7.96472","-11.73833","PPLA","seat of a first-order administrative division","6295630|6255146|SL|03|2410048","Earth|Africa|Sierra Leone|Southern Province|Bo","2","1","1","Development of sustainable pro-poor finance","2008-01-01","start-actual","2013-12-31","","UNDP","DAC","Sierra Leone","SLE","311","Agriculture","31120","Agricultural development","Completion","2008","2013","2079159.0","1893791.0","94507.2272727","86081.4090909"
"SL/001093","SL/001093_2407790","1","2407790","Kenema","7.87687","-11.19025","PPLA","seat of a first-order administrative division","6295630|6255146|SL|01|2407790","Earth|Africa|Sierra Leone|Eastern Province|Kenema","2","1","1","Development of sustainable pro-poor finance","2008-01-01","start-actual","2013-12-31","","UNDP","DAC","Sierra Leone","SLE","311","Agriculture","31120","Agricultural development","Completion","2008","2013","2079159.0","1893791.0","94507.2272727","86081.4090909"
"SL/001093","SL/001093_2406407","1","2406407","Makeni","8.88605","-12.04418","PPLA","seat of a first-order administrative division","6295630|6255146|SL|02|2406407","Earth|Africa|Sierra Leone|Northern Province|Makeni","2","1","1","Development of sustainable pro-poor finance","2008-01-01","start-actual","2013-12-31","","UNDP","DAC","Sierra Leone","SLE","311","Agriculture","31120","Agricultural development","Completion","2008","2013","2079159.0","1893791.0","94507.2272727","86081.4090909"
"SL/001093","SL/001093_2409306","1","2409306","Freetown","8.484","-13.22994","PPLC","capital of a political entity","6295630|6255146|SL|04|2409306","Earth|Africa|Sierra Leone|Western Area|Freetown","2","1","1","Development of sustainable pro-poor finance","2008-01-01","start-actual","2013-12-31","","UNDP","DAC","Sierra Leone","SLE","311","Agriculture","31120","Agricultural development","Completion","2008","2013","2079159.0","1893791.0","94507.2272727","86081.4090909"
"SL/001504","SL/001504_2405013","1","2405013","Moyamba","8.15898","-12.43168","PPL","populated place","6295630|6255146|SL|03|2405013","Earth|Africa|Sierra Leone|Southern Province|Moyamba","2","1","1","ECOWAN Regional Backbone Infrastructure and E-Governance","2011-01-01","start-actual","2013-12-31","","Islamic Development Bank (IDB)","DAC","Sierra Leone","SLE","220","Communications","22040","Information and communication technology (ICT)","Implementation","2011","2013","660322.0","660322.0","33016.1","33016.1"
"SL/001504","SL/001504_2404433","1","2404433","Port Loko","8.76609","-12.78696","PPL","populated place","6295630|6255146|SL|02|2404433","Earth|Africa|Sierra Leone|Northern Province|Port Loko","2","1","1","ECOWAN Regional Backbone Infrastructure and E-Governance","2011-01-01","start-actual","2013-12-31","","Islamic Development Bank (IDB)","DAC","Sierra Leone","SLE","220","Communications","22040","Information and communication technology (ICT)","Implementation","2011","2013","660322.0","660322.0","33016.1","33016.1"
"SL/001504","SL/001504_2403094","1","2403094","Waterloo","8.3389","-13.07091","PPL","populated place","6295630|6255146|SL|04|2403094","Earth|Africa|Sierra Leone|Western Area|Waterloo","2","1","1","ECOWAN Regional Backbone Infrastructure and E-Governance","2011-01-01","start-actual","2013-12-31","","Islamic Development Bank (IDB)","DAC","Sierra Leone","SLE","220","Communications","22040","Information and communication technology (ICT)","Implementation","2011","2013","660322.0","660322.0","33016.1","33016.1"
"SL/001504","SL/001504_2406931","1","2406931","Lumley","8.46063","-13.26976","PPL","populated place","6295630|6255146|SL|04|2406931","Earth|Africa|Sierra Leone|Western Area|Lumley","2","1","1","ECOWAN Regional Backbone Infrastructure and E-Governance","2011-01-01","start-actual","2013-12-31","","Islamic Development Bank (IDB)","DAC","Sierra Leone","SLE","220","Communications","22040","Information and communication technology (ICT)","Implementation","2011","2013","660322.0","660322.0","33016.1","33016.1"
"SL/001504","SL/001504_2408088","1","2408088","Kambia","9.12504","-12.91816","PPL","populated place","6295630|6255146|SL|02|2408088","Earth|Africa|Sierra Leone|Northern Province|Kambia","2","1","1","ECOWAN Regional Backbone Infrastructure and E-Governance","2011-01-01","start-actual","2013-12-31","","Islamic Development Bank (IDB)","DAC","Sierra Leone","SLE","220","Communications","22040","Information and communication technology (ICT)","Implementation","2011","2013","660322.0","660322.0","33016.1","33016.1"
"SL/001504","SL/001504_8469050","1","8469050","Masiaka","8.76667","-12.7875","PPL","populated place","6295630|6255146|SL|02|8469050","Earth|Africa|Sierra Leone|Northern Province|Masiaka","2","1","1","ECOWAN Regional Backbone Infrastructure and E-Governance","2011-01-01","start-actual","2013-12-31","","Islamic Development Bank (IDB)","DAC","Sierra Leone","SLE","220","Communications","22040","Information and communication technology (ICT)","Implementation","2011","2013","660322.0","660322.0","33016.1","33016.1"
"SL/001504","SL/001504_2403642","1","2403642","Taiama","8.61756","-12.85552","PPL","populated place","6295630|6255146|SL|02|2403642","Earth|Africa|Sierra Leone|Northern Province|Taiama","2","1","1","ECOWAN Regional Backbone Infrastructure and E-Governance","2011-01-01","start-actual","2013-12-31","","Islamic Development Bank (IDB)","DAC","Sierra Leone","SLE","220","Communications","22040","Information and communication technology (ICT)","Implementation","2011","2013","660322.0","660322.0","33016.1","33016.1"
"SL/001504","SL/001504_2408357","1","2408357","Joru","7.78333","-11.31667","PPL","populated place","6295630|6255146|SL|01|2408357","Earth|Africa|Sierra Leone|Eastern Province|Joru","2","1","1","ECOWAN Regional Backbone Infrastructure and E-Governance","2011-01-01","start-actual","2013-12-31","","Islamic Development Bank (IDB)","DAC","Sierra Leone","SLE","220","Communications","22040","Information and communication technology (ICT)","Implementation","2011","2013","660322.0","660322.0","33016.1","33016.1"
"SL/001504","SL/001504_2410048","1","2410048","Bo","7.96472","-11.73833","PPLA","seat of a first-order administrative division","6295630|6255146|SL|03|2410048","Earth|Africa|Sierra Leone|Southern Province|Bo","2","1","1","ECOWAN Regional Backbone Infrastructure and E-Governance","2011-01-01","start-actual","2013-12-31","","Islamic Development Bank (IDB)","DAC","Sierra Leone","SLE","220","Communications","22040","Information and communication technology (ICT)","Implementation","2011","2013","660322.0","660322.0","33016.1","33016.1"
"SL/001504","SL/001504_2407790","1","2407790","Kenema","7.87687","-11.19025","PPLA","seat of a first-order administrative division","6295630|6255146|SL|01|2407790","Earth|Africa|Sierra Leone|Eastern Province|Kenema","2","1","1","ECOWAN Regional Backbone Infrastructure and E-Governance","2011-01-01","start-actual","2013-12-31","","Islamic Development Bank (IDB)","DAC","Sierra Leone","SLE","220","Communications","22040","Information and communication technology (ICT)","Implementation","2011","2013","660322.0","660322.0","33016.1","33016.1"
"SL/001504","SL/001504_2410021","3","2410021","Bo District","7.98877","-11.6734","ADM2","second-order administrative division","6295630|6255146|SL|03|2410021","Earth|Africa|Sierra Leone|Southern Province|Bo District","1","1","1","ECOWAN Regional Backbone Infrastructure and E-Governance","2011-01-01","start-actual","2013-12-31","","Islamic Development Bank (IDB)","DAC","Sierra Leone","SLE","220","Communications","22040","Information and communication technology (ICT)","Implementation","2011","2013","660322.0","660322.0","33016.1","33016.1"
"SL/001504","SL/001504_2407781","3","2407781","Kenema District","7.95171","-11.19004","ADM2","second-order administrative division","6295630|6255146|SL|01|2407781","Earth|Africa|Sierra Leone|Eastern Province|Kenema District","1","1","1","ECOWAN Regional Backbone Infrastructure and E-Governance","2011-01-01","start-actual","2013-12-31","","Islamic Development Bank (IDB)","DAC","Sierra Leone","SLE","220","Communications","22040","Information and communication technology (ICT)","Implementation","2011","2013","660322.0","660322.0","33016.1","33016.1"
"SL/001504","SL/001504_2405008","3","2405008","Moyamba District","8.0629","-12.44401","ADM2","second-order administrative division","6295630|6255146|SL|03|2405008","Earth|Africa|Sierra Leone|Southern Province|Moyamba District","1","1","1","ECOWAN Regional Backbone Infrastructure and E-Governance","2011-01-01","start-actual","2013-12-31","","Islamic Development Bank (IDB)","DAC","Sierra Leone","SLE","220","Communications","22040","Information and communication technology (ICT)","Implementation","2011","2013","660322.0","660322.0","33016.1","33016.1"
"SL/001504","SL/001504_2404431","3","2404431","Port Loko District","8.72386","-12.75904","ADM2","second-order administrative division","6295630|6255146|SL|02|2404431","Earth|Africa|Sierra Leone|Northern Province|Port Loko District","1","1","1","ECOWAN Regional Backbone Infrastructure and E-Governance","2011-01-01","start-actual","2013-12-31","","Islamic Development Bank (IDB)","DAC","Sierra Leone","SLE","220","Communications","22040","Information and communication technology (ICT)","Implementation","2011","2013","660322.0","660322.0","33016.1","33016.1"
"SL/001504","SL/001504_2404399","3","2404399","Pujehun District","7.31855","-11.5792","ADM2","second-order administrative division","6295630|6255146|SL|03|2404399","Earth|Africa|Sierra Leone|Southern Province|Pujehun District","1","1","1","ECOWAN Regional Backbone Infrastructure and E-Governance","2011-01-01","start-actual","2013-12-31","","Islamic Development Bank (IDB)","DAC","Sierra Leone","SLE","220","Communications","22040","Information and communication technology (ICT)","Implementation","2011","2013","660322.0","660322.0","33016.1","33016.1"
"SL/001504","SL/001504_2408083","3","2408083","Kambia District","9.18251","-12.81309","ADM2","second-order administrative division","6295630|6255146|SL|02|2408083","Earth|Africa|Sierra Leone|Northern Province|Kambia District","1","1","1","ECOWAN Regional Backbone Infrastructure and E-Governance","2011-01-01","start-actual","2013-12-31","","Islamic Development Bank (IDB)","DAC","Sierra Leone","SLE","220","Communications","22040","Information and communication technology (ICT)","Implementation","2011","2013","660322.0","660322.0","33016.1","33016.1"
"SL/001504","SL/001504_9179950","3","9179950","Western Area Rural","8.32319","-13.09485","ADM2","second-order administrative division","6295630|6255146|SL|04|9179950","Earth|Africa|Sierra Leone|Western Area|Western Area Rural","1","1","1","ECOWAN Regional Backbone Infrastructure and E-Governance","2011-01-01","start-actual","2013-12-31","","Islamic Development Bank (IDB)","DAC","Sierra Leone","SLE","220","Communications","22040","Information and communication technology (ICT)","Implementation","2011","2013","660322.0","660322.0","33016.1","33016.1"
"SL/001504","SL/001504_9179949","3","9179949","Western Area Urban","8.45358","-13.26617","ADM2","second-order administrative division","6295630|6255146|SL|04|9179949","Earth|Africa|Sierra Leone|Western Area|Western Area Urban","1","1","1","ECOWAN Regional Backbone Infrastructure and E-Governance","2011-01-01","start-actual","2013-12-31","","Islamic Development Bank (IDB)","DAC","Sierra Leone","SLE","220","Communications","22040","Information and communication technology (ICT)","Implementation","2011","2013","660322.0","660322.0","33016.1","33016.1"
"SL/001504","SL/001504_2409306","1","2409306","Freetown","8.484","-13.22994","PPLC","capital of a political entity","6295630|6255146|SL|04|2409306","Earth|Africa|Sierra Leone|Western Area|Freetown","2","1","1","ECOWAN Regional Backbone Infrastructure and E-Governance","2011-01-01","start-actual","2013-12-31","","Islamic Development Bank (IDB)","DAC","Sierra Leone","SLE","220","Communications","22040","Information and communication technology (ICT)","Implementation","2011","2013","660322.0","660322.0","33016.1","33016.1"
"SL/001504","SL/001504_9180331","1","9180331","Freetown","8.45774","-13.23714","ADM3","third-order administrative division","6295630|6255146|SL|04|9180331","Earth|Africa|Sierra Leone|Western Area|Freetown","1","1","1","ECOWAN Regional Backbone Infrastructure and E-Governance","2011-01-01","start-actual","2013-12-31","","Islamic Development Bank (IDB)","DAC","Sierra Leone","SLE","220","Communications","22040","Information and communication technology (ICT)","Implementation","2011","2013","660322.0","660322.0","33016.1","33016.1"
"SL/001686","SL/001686_2405013","1","2405013","Moyamba","8.15898","-12.43168","PPL","populated place","6295630|6255146|SL|03|2405013","Earth|Africa|Sierra Leone|Southern Province|Moyamba","2","1","1","Road Infrastructure Program","2012-01-20","start-actual","2014-12-31","","European Union (EU)","DAC","Sierra Leone","SLE","210","Transport and Storage","21020","Road transport","Completion","2012","2014","1404841.0","1404841.0","280968.2","280968.2"
"SL/001686","SL/001686_2405006","1","2405006","Moyamba Junction","8.32444","-12.21585","PPL","populated place","6295630|6255146|SL|03|2405006","Earth|Africa|Sierra Leone|Southern Province|Moyamba Junction","2","1","1","Road Infrastructure Program","2012-01-20","start-actual","2014-12-31","","European Union (EU)","DAC","Sierra Leone","SLE","210","Transport and Storage","21020","Road transport","Completion","2012","2014","1404841.0","1404841.0","280968.2","280968.2"
"SL/001686","SL/001686_2406358","1","2406358","Makolo","8.3892","-12.94804","PPL","populated place","6295630|6255146|SL|02|2406358","Earth|Africa|Sierra Leone|Northern Province|Makolo","2","1","1","Road Infrastructure Program","2012-01-20","start-actual","2014-12-31","","European Union (EU)","DAC","Sierra Leone","SLE","210","Transport and Storage","21020","Road transport","Completion","2012","2014","1404841.0","1404841.0","280968.2","280968.2"
"SL/001686","SL/001686_2405008","3","2405008","Moyamba District","8.0629","-12.44401","ADM2","second-order administrative division","6295630|6255146|SL|03|2405008","Earth|Africa|Sierra Leone|Southern Province|Moyamba District","1","1","1","Road Infrastructure Program","2012-01-20","start-actual","2014-12-31","","European Union (EU)","DAC","Sierra Leone","SLE","210","Transport and Storage","21020","Road transport","Completion","2012","2014","1404841.0","1404841.0","280968.2","280968.2"
"SL/001686","SL/001686_2404431","3","2404431","Port Loko District","8.72386","-12.75904","ADM2","second-order administrative division","6295630|6255146|SL|02|2404431","Earth|Africa|Sierra Leone|Northern Province|Port Loko District","1","1","1","Road Infrastructure Program","2012-01-20","start-actual","2014-12-31","","European Union (EU)","DAC","Sierra Leone","SLE","210","Transport and Storage","21020","Road transport","Completion","2012","2014","1404841.0","1404841.0","280968.2","280968.2"
"SL/001765","SL/001765_2405013","1","2405013","Moyamba","8.15898","-12.43168","PPL","populated place","6295630|6255146|SL|03|2405013","Earth|Africa|Sierra Leone|Southern Province|Moyamba","2","1","1","Supervision of Priority Infrastructure Roads and Bridge works, Urban roads and risk mitigation","2012-12-05","start-actual","2013-12-31","","European Union (EU)","DAC","Sierra Leone","SLE","210","Transport and Storage","21020","Road transport","Implementation","2012","2013","573548.0","573548.0","38236.5333333","38236.5333333"
"SL/001765","SL/001765_2408329","1","2408329","Kabala","9.58893","-11.55256","PPL","populated place","6295630|6255146|SL|02|2408329","Earth|Africa|Sierra Leone|Northern Province|Kabala","2","1","1","Supervision of Priority Infrastructure Roads and Bridge works, Urban roads and risk mitigation","2012-12-05","start-actual","2013-12-31","","European Union (EU)","DAC","Sierra Leone","SLE","210","Transport and Storage","21020","Road transport","Implementation","2012","2013","573548.0","573548.0","38236.5333333","38236.5333333"
"SL/001765","SL/001765_2403753","1","2403753","Songo","8.36843","-12.93282","PPL","populated place","6295630|6255146|SL|02|2403753","Earth|Africa|Sierra Leone|Northern Province|Songo","2","1","1","Supervision of Priority Infrastructure Roads and Bridge works, Urban roads and risk mitigation","2012-12-05","start-actual","2013-12-31","","European Union (EU)","DAC","Sierra Leone","SLE","210","Transport and Storage","21020","Road transport","Implementation","2012","2013","573548.0","573548.0","38236.5333333","38236.5333333"
"SL/001765","SL/001765_8469050","1","8469050","Masiaka","8.76667","-12.7875","PPL","populated place","6295630|6255146|SL|02|8469050","Earth|Africa|Sierra Leone|Northern Province|Masiaka","2","1","1","Supervision of Priority Infrastructure Roads and Bridge works, Urban roads and risk mitigation","2012-12-05","start-actual","2013-12-31","","European Union (EU)","DAC","Sierra Leone","SLE","210","Transport and Storage","21020","Road transport","Implementation","2012","2013","573548.0","573548.0","38236.5333333","38236.5333333"
"SL/001765","SL/001765_2410049","1","2410049","Bo","7.9359","-11.34699","PPL","populated place","6295630|6255146|SL|01|2410049","Earth|Africa|Sierra Leone|Eastern Province|Bo","2","1","1","Supervision of Priority Infrastructure Roads and Bridge works, Urban roads and risk mitigation","2012-12-05","start-actual","2013-12-31","","European Union (EU)","DAC","Sierra Leone","SLE","210","Transport and Storage","21020","Road transport","Implementation","2012","2013","573548.0","573548.0","38236.5333333","38236.5333333"
"SL/001765","SL/001765_2410490","1","2410490","Bandajuma","8.31158","-10.8491","PPL","populated place","6295630|6255146|SL|01|2410490","Earth|Africa|Sierra Leone|Eastern Province|Bandajuma","2","1","1","Supervision of Priority Infrastructure Roads and Bridge works, Urban roads and risk mitigation","2012-12-05","start-actual","2013-12-31","","European Union (EU)","DAC","Sierra Leone","SLE","210","Transport and Storage","21020","Road transport","Implementation","2012","2013","573548.0","573548.0","38236.5333333","38236.5333333"
"SL/001765","SL/001765_2406407","1","2406407","Makeni","8.88605","-12.04418","PPLA","seat of a first-order administrative division","6295630|6255146|SL|02|2406407","Earth|Africa|Sierra Leone|Northern Province|Makeni","2","1","1","Supervision of Priority Infrastructure Roads and Bridge works, Urban roads and risk mitigation","2012-12-05","start-actual","2013-12-31","","European Union (EU)","DAC","Sierra Leone","SLE","210","Transport and Storage","21020","Road transport","Implementation","2012","2013","573548.0","573548.0","38236.5333333","38236.5333333"
"SL/001765","SL/001765_2410021","3","2410021","Bo District","7.98877","-11.6734","ADM2","second-order administrative division","6295630|6255146|SL|03|2410021","Earth|Africa|Sierra Leone|Southern Province|Bo District","1","1","1","Supervision of Priority Infrastructure Roads and Bridge works, Urban roads and risk mitigation","2012-12-05","start-actual","2013-12-31","","European Union (EU)","DAC","Sierra Leone","SLE","210","Transport and Storage","21020","Road transport","Implementation","2012","2013","573548.0","573548.0","38236.5333333","38236.5333333"
"SL/001765","SL/001765_2408249","3","2408249","Kailahun District","8.10768","-10.75146","ADM2","second-order administrative division","6295630|6255146|SL|01|2408249","Earth|Africa|Sierra Leone|Eastern Province|Kailahun District","1","1","1","Supervision of Priority Infrastructure Roads and Bridge works, Urban roads and risk mitigation","2012-12-05","start-actual","2013-12-31","","European Union (EU)","DAC","Sierra Leone","SLE","210","Transport and Storage","21020","Road transport","Implementation","2012","2013","573548.0","573548.0","38236.5333333","38236.5333333"
"SL/001765","SL/001765_2405008","3","2405008","Moyamba District","8.0629","-12.44401","ADM2","second-order administrative division","6295630|6255146|SL|03|2405008","Earth|Africa|Sierra Leone|Southern Province|Moyamba District","1","1","1","Supervision of Priority Infrastructure Roads and Bridge works, Urban roads and risk mitigation","2012-12-05","start-actual","2013-12-31","","European Union (EU)","DAC","Sierra Leone","SLE","210","Transport and Storage","21020","Road transport","Implementation","2012","2013","573548.0","573548.0","38236.5333333","38236.5333333"
"SL/001765","SL/001765_2404431","3","2404431","Port Loko District","8.72386","-12.75904","ADM2","second-order administrative division","6295630|6255146|SL|02|2404431","Earth|Africa|Sierra Leone|Northern Province|Port Loko District","1","1","1","Supervision of Priority Infrastructure Roads and Bridge works, Urban roads and risk mitigation","2012-12-05","start-actual","2013-12-31","","European Union (EU)","DAC","Sierra Leone","SLE","210","Transport and Storage","21020","Road transport","Implementation","2012","2013","573548.0","573548.0","38236.5333333","38236.5333333"
"SL/001765","SL/001765_2407650","3","2407650","Koinadugu District","9.50991","-11.34601","ADM2","second-order administrative division","6295630|6255146|SL|02|2407650","Earth|Africa|Sierra Leone|Northern Province|Koinadugu District","1","1","1","Supervision of Priority Infrastructure Roads and Bridge works, Urban roads and risk mitigation","2012-12-05","start-actual","2013-12-31","","European Union (EU)","DAC","Sierra Leone","SLE","210","Transport and Storage","21020","Road transport","Implementation","2012","2013","573548.0","573548.0","38236.5333333","38236.5333333"
"SL/001765","SL/001765_2409983","3","2409983","Bombali District","9.28444","-12.16449","ADM2","second-order administrative division","6295630|6255146|SL|02|2409983","Earth|Africa|Sierra Leone|Northern Province|Bombali District","1","1","1","Supervision of Priority Infrastructure Roads and Bridge works, Urban roads and risk mitigation","2012-12-05","start-actual","2013-12-31","","European Union (EU)","DAC","Sierra Leone","SLE","210","Transport and Storage","21020","Road transport","Implementation","2012","2013","573548.0","573548.0","38236.5333333","38236.5333333"
"SL/001765","SL/001765_9179950","3","9179950","Western Area Rural","8.32319","-13.09485","ADM2","second-order administrative division","6295630|6255146|SL|04|9179950","Earth|Africa|Sierra Leone|Western Area|Western Area Rural","1","1","1","Supervision of Priority Infrastructure Roads and Bridge works, Urban roads and risk mitigation","2012-12-05","start-actual","2013-12-31","","European Union (EU)","DAC","Sierra Leone","SLE","210","Transport and Storage","21020","Road transport","Implementation","2012","2013","573548.0","573548.0","38236.5333333","38236.5333333"
"SL/001765","SL/001765_2409306","1","2409306","Freetown","8.484","-13.22994","PPLC","capital of a political entity","6295630|6255146|SL|04|2409306","Earth|Africa|Sierra Leone|Western Area|Freetown","2","1","1","Supervision of Priority Infrastructure Roads and Bridge works, Urban roads and risk mitigation","2012-12-05","start-actual","2013-12-31","","European Union (EU)","DAC","Sierra Leone","SLE","210","Transport and Storage","21020","Road transport","Implementation","2012","2013","573548.0","573548.0","38236.5333333","38236.5333333"
"SL/001184","SL/001184_2404433","1","2404433","Port Loko","8.76609","-12.78696","PPL","populated place","6295630|6255146|SL|02|2404433","Earth|Africa|Sierra Leone|Northern Province|Port Loko","2","1","1","Education II","1992-10-21","start-actual","2006-12-30","","African Development Bank (AfDB)","DAC","Sierra Leone","SLE","111","Education, level unspecified","11105","Education, level unspecified,purpose unspecified","Completion","1992","2006","18594693.0","724501.0","715180.5","27865.4230769"
"SL/001184","SL/001184_2566540","1","2566540","Bullom","8.63707","-13.16225","PPL","populated place","6295630|6255146|SL|02|2566540","Earth|Africa|Sierra Leone|Northern Province|Bullom","2","1","1","Education II","1992-10-21","start-actual","2006-12-30","","African Development Bank (AfDB)","DAC","Sierra Leone","SLE","111","Education, level unspecified","11105","Education, level unspecified,purpose unspecified","Completion","1992","2006","18594693.0","724501.0","715180.5","27865.4230769"
"SL/001184","SL/001184_9191693","1","9191693","Goderich","8.43333","-13.28333","PPL","populated place","6295630|6255146|SL|9191693","Earth|Africa|Sierra Leone|Goderich","2","1","1","Education II","1992-10-21","start-actual","2006-12-30","","African Development Bank (AfDB)","DAC","Sierra Leone","SLE","111","Education, level unspecified","11105","Education, level unspecified,purpose unspecified","Completion","1992","2006","18594693.0","724501.0","715180.5","27865.4230769"
"SL/001184","SL/001184_2408582","1","2408582","Hastings","8.37994","-13.13693","PPL","populated place","6295630|6255146|SL|04|2408582","Earth|Africa|Sierra Leone|Western Area|Hastings","2","1","1","Education II","1992-10-21","start-actual","2006-12-30","","African Development Bank (AfDB)","DAC","Sierra Leone","SLE","111","Education, level unspecified","11105","Education, level unspecified,purpose unspecified","Completion","1992","2006","18594693.0","724501.0","715180.5","27865.4230769"
"SL/001184","SL/001184_2408329","1","2408329","Kabala","9.58893","-11.55256","PPL","populated place","6295630|6255146|SL|02|2408329","Earth|Africa|Sierra Leone|Northern Province|Kabala","2","1","1","Education II","1992-10-21","start-actual","2006-12-30","","African Development Bank (AfDB)","DAC","Sierra Leone","SLE","111","Education, level unspecified","11105","Education, level unspecified,purpose unspecified","Completion","1992","2006","18594693.0","724501.0","715180.5","27865.4230769"
"SL/001184","SL/001184_2406588","1","2406588","Magboronga","8.90057","-12.68298","PPL","populated place","6295630|6255146|SL|02|2406588","Earth|Africa|Sierra Leone|Northern Province|Magboronga","2","1","1","Education II","1992-10-21","start-actual","2006-12-30","","African Development Bank (AfDB)","DAC","Sierra Leone","SLE","111","Education, level unspecified","11105","Education, level unspecified,purpose unspecified","Completion","1992","2006","18594693.0","724501.0","715180.5","27865.4230769"
"SL/001184","SL/001184_2406576","1","2406576","Magburaka","8.72306","-11.9488","PPL","populated place","6295630|6255146|SL|02|2406576","Earth|Africa|Sierra Leone|Northern Province|Magburaka","2","1","1","Education II","1992-10-21","start-actual","2006-12-30","","African Development Bank (AfDB)","DAC","Sierra Leone","SLE","111","Education, level unspecified","11105","Education, level unspecified,purpose unspecified","Completion","1992","2006","18594693.0","724501.0","715180.5","27865.4230769"
"SL/001184","SL/001184_2406437","1","2406437","Makari","8.86806","-12.12524","PPL","populated place","6295630|6255146|SL|02|2406437","Earth|Africa|Sierra Leone|Northern Province|Makari","2","1","1","Education II","1992-10-21","start-actual","2006-12-30","","African Development Bank (AfDB)","DAC","Sierra Leone","SLE","111","Education, level unspecified","11105","Education, level unspecified,purpose unspecified","Completion","1992","2006","18594693.0","724501.0","715180.5","27865.4230769"
"SL/001184","SL/001184_2404884","1","2404884","Newton","8.33879","-13.00477","PPL","populated place","6295630|6255146|SL|04|2404884","Earth|Africa|Sierra Leone|Western Area|Newton","2","1","1","Education II","1992-10-21","start-actual","2006-12-30","","African Development Bank (AfDB)","DAC","Sierra Leone","SLE","111","Education, level unspecified","11105","Education, level unspecified,purpose unspecified","Completion","1992","2006","18594693.0","724501.0","715180.5","27865.4230769"
"SL/001184","SL/001184_2404841","1","2404841","Njala","8.1121","-12.07523","PPL","populated place","6295630|6255146|SL|03|2404841","Earth|Africa|Sierra Leone|Southern Province|Njala","2","1","1","Education II","1992-10-21","start-actual","2006-12-30","","African Development Bank (AfDB)","DAC","Sierra Leone","SLE","111","Education, level unspecified","11105","Education, level unspecified,purpose unspecified","Completion","1992","2006","18594693.0","724501.0","715180.5","27865.4230769"
"SL/001184","SL/001184_2404656","1","2404656","Panlap","8.9179","-12.03019","PPL","populated place","6295630|6255146|SL|02|2404656","Earth|Africa|Sierra Leone|Northern Province|Panlap","2","1","1","Education II","1992-10-21","start-actual","2006-12-30","","African Development Bank (AfDB)","DAC","Sierra Leone","SLE","111","Education, level unspecified","11105","Education, level unspecified,purpose unspecified","Completion","1992","2006","18594693.0","724501.0","715180.5","27865.4230769"
"SL/001184","SL/001184_2403669","1","2403669","Sussex","8.34679","-13.23061","PPL","populated place","6295630|6255146|SL|04|2403669","Earth|Africa|Sierra Leone|Western Area|Sussex","2","1","1","Education II","1992-10-21","start-actual","2006-12-30","","African Development Bank (AfDB)","DAC","Sierra Leone","SLE","111","Education, level unspecified","11105","Education, level unspecified,purpose unspecified","Completion","1992","2006","18594693.0","724501.0","715180.5","27865.4230769"
"SL/001184","SL/001184_2403268","1","2403268","Towama","7.92688","-11.77076","PPL","populated place","6295630|6255146|SL|03|2403268","Earth|Africa|Sierra Leone|Southern Province|Towama","2","1","1","Education II","1992-10-21","start-actual","2006-12-30","","African Development Bank (AfDB)","DAC","Sierra Leone","SLE","111","Education, level unspecified","11105","Education, level unspecified,purpose unspecified","Completion","1992","2006","18594693.0","724501.0","715180.5","27865.4230769"
"SL/001184","SL/001184_2403094","1","2403094","Waterloo","8.3389","-13.07091","PPL","populated place","6295630|6255146|SL|04|2403094","Earth|Africa|Sierra Leone|Western Area|Waterloo","2","1","1","Education II","1992-10-21","start-actual","2006-12-30","","African Development Bank (AfDB)","DAC","Sierra Leone","SLE","111","Education, level unspecified","11105","Education, level unspecified,purpose unspecified","Completion","1992","2006","18594693.0","724501.0","715180.5","27865.4230769"
"SL/001184","SL/001184_2409783","1","2409783","Bunumbu","8.17421","-10.86432","PPL","populated place","6295630|6255146|SL|01|2409783","Earth|Africa|Sierra Leone|Eastern Province|Bunumbu","2","1","1","Education II","1992-10-21","start-actual","2006-12-30","","African Development Bank (AfDB)","DAC","Sierra Leone","SLE","111","Education, level unspecified","11105","Education, level unspecified,purpose unspecified","Completion","1992","2006","18594693.0","724501.0","715180.5","27865.4230769"
"SL/001184","SL/001184_2406407","1","2406407","Makeni","8.88605","-12.04418","PPLA","seat of a first-order administrative division","6295630|6255146|SL|02|2406407","Earth|Africa|Sierra Leone|Northern Province|Makeni","2","1","1","Education II","1992-10-21","start-actual","2006-12-30","","African Development Bank (AfDB)","DAC","Sierra Leone","SLE","111","Education, level unspecified","11105","Education, level unspecified,purpose unspecified","Completion","1992","2006","18594693.0","724501.0","715180.5","27865.4230769"
"SL/001184","SL/001184_2410021","3","2410021","Bo District","7.98877","-11.6734","ADM2","second-order administrative division","6295630|6255146|SL|03|2410021","Earth|Africa|Sierra Leone|Southern Province|Bo District","1","1","1","Education II","1992-10-21","start-actual","2006-12-30","","African Development Bank (AfDB)","DAC","Sierra Leone","SLE","111","Education, level unspecified","11105","Education, level unspecified,purpose unspecified","Completion","1992","2006","18594693.0","724501.0","715180.5","27865.4230769"
"SL/001184","SL/001184_2405008","3","2405008","Moyamba District","8.0629","-12.44401","ADM2","second-order administrative division","6295630|6255146|SL|03|2405008","Earth|Africa|Sierra Leone|Southern Province|Moyamba District","1","1","1","Education II","1992-10-21","start-actual","2006-12-30","","African Development Bank (AfDB)","DAC","Sierra Leone","SLE","111","Education, level unspecified","11105","Education, level unspecified,purpose unspecified","Completion","1992","2006","18594693.0","724501.0","715180.5","27865.4230769"
"SL/001184","SL/001184_2404431","3","2404431","Port Loko District","8.72386","-12.75904","ADM2","second-order administrative division","6295630|6255146|SL|02|2404431","Earth|Africa|Sierra Leone|Northern Province|Port Loko District","1","1","1","Education II","1992-10-21","start-actual","2006-12-30","","African Development Bank (AfDB)","DAC","Sierra Leone","SLE","111","Education, level unspecified","11105","Education, level unspecified,purpose unspecified","Completion","1992","2006","18594693.0","724501.0","715180.5","27865.4230769"
"SL/001184","SL/001184_2408083","3","2408083","Kambia District","9.18251","-12.81309","ADM2","second-order administrative division","6295630|6255146|SL|02|2408083","Earth|Africa|Sierra Leone|Northern Province|Kambia District","1","1","1","Education II","1992-10-21","start-actual","2006-12-30","","African Development Bank (AfDB)","DAC","Sierra Leone","SLE","111","Education, level unspecified","11105","Education, level unspecified,purpose unspecified","Completion","1992","2006","18594693.0","724501.0","715180.5","27865.4230769"
"SL/001184","SL/001184_2409306","1","2409306","Freetown","8.484","-13.22994","PPLC","capital of a political entity","6295630|6255146|SL|04|2409306","Earth|Africa|Sierra Leone|Western Area|Freetown","2","1","1","Education II","1992-10-21","start-actual","2006-12-30","","African Development Bank (AfDB)","DAC","Sierra Leone","SLE","111","Education, level unspecified","11105","Education, level unspecified,purpose unspecified","Completion","1992","2006","18594693.0","724501.0","715180.5","27865.4230769"
"SL/001184","SL/001184_2403068","4","2403068","Western Area","8.33333","-13.11667","ADM1","first-order administrative division","6295630|6255146|SL|04","Earth|Africa|Sierra Leone|Western Area","1","1","1","Education II","1992-10-21","start-actual","2006-12-30","","African Development Bank (AfDB)","DAC","Sierra Leone","SLE","111","Education, level unspecified","11105","Education, level unspecified,purpose unspecified","Completion","1992","2006","18594693.0","724501.0","715180.5","27865.4230769"
"SL/001184","SL/001184_2409543","4","2409543","Eastern Province","8.25","-11.0","ADM1","first-order administrative division","6295630|6255146|SL|01","Earth|Africa|Sierra Leone|Eastern Province","1","1","1","Education II","1992-10-21","start-actual","2006-12-30","","African Development Bank (AfDB)","DAC","Sierra Leone","SLE","111","Education, level unspecified","11105","Education, level unspecified,purpose unspecified","Completion","1992","2006","18594693.0","724501.0","715180.5","27865.4230769"
"SL/001184","SL/001184_2404798","4","2404798","Northern Province","9.13333","-12.0","ADM1","first-order administrative division","6295630|6255146|SL|02","Earth|Africa|Sierra Leone|Northern Province","1","1","1","Education II","1992-10-21","start-actual","2006-12-30","","African Development Bank (AfDB)","DAC","Sierra Leone","SLE","111","Education, level unspecified","11105","Education, level unspecified,purpose unspecified","Completion","1992","2006","18594693.0","724501.0","715180.5","27865.4230769"
"SL/001184","SL/001184_2403745","4","2403745","Southern Province","7.8","-12.0","ADM1","first-order administrative division","6295630|6255146|SL|03","Earth|Africa|Sierra Leone|Southern Province","1","1","1","Education II","1992-10-21","start-actual","2006-12-30","","African Development Bank (AfDB)","DAC","Sierra Leone","SLE","111","Education, level unspecified","11105","Education, level unspecified,purpose unspecified","Completion","1992","2006","18594693.0","724501.0","715180.5","27865.4230769"
"SL/000118","SL/000118_2404433","1","2404433","Port Loko","8.76609","-12.78696","PPL","populated place","6295630|6255146|SL|02|2404433","Earth|Africa|Sierra Leone|Northern Province|Port Loko","2","1","1","Bumbuna Hydro Electric Project - Supplementary Loan","2009-04-06","start-actual","2010-03-26","end-actual","African Development Bank (AfDB)","DAC","Sierra Leone","SLE","230","Energy Generation and Supply","23000","Energy generation and supply, combinations ofpurposes","Completion","2009","2010","13097009.0","10606527.0","1190637.18182","964229.727273"
"SL/000118","SL/000118_2409829","1","2409829","Bumbuna","9.04466","-11.74576","PPL","populated place","6295630|6255146|SL|02|2409829","Earth|Africa|Sierra Leone|Northern Province|Bumbuna","2","1","1","Bumbuna Hydro Electric Project - Supplementary Loan","2009-04-06","start-actual","2010-03-26","end-actual","African Development Bank (AfDB)","DAC","Sierra Leone","SLE","230","Energy Generation and Supply","23000","Energy generation and supply, combinations ofpurposes","Completion","2009","2010","13097009.0","10606527.0","1190637.18182","964229.727273"
"SL/000118","SL/000118_7730333","1","7730333","Kingtom","8.48793","-13.24759","PPL","populated place","6295630|6255146|SL|04|7730333","Earth|Africa|Sierra Leone|Western Area|Kingtom","2","1","1","Bumbuna Hydro Electric Project - Supplementary Loan","2009-04-06","start-actual","2010-03-26","end-actual","African Development Bank (AfDB)","DAC","Sierra Leone","SLE","230","Energy Generation and Supply","23000","Energy generation and supply, combinations ofpurposes","Completion","2009","2010","13097009.0","10606527.0","1190637.18182","964229.727273"
"SL/000118","SL/000118_2406916","1","2406916","Lunsar","8.68439","-12.53499","PPL","populated place","6295630|6255146|SL|02|2406916","Earth|Africa|Sierra Leone|Northern Province|Lunsar","2","1","1","Bumbuna Hydro Electric Project - Supplementary Loan","2009-04-06","start-actual","2010-03-26","end-actual","African Development Bank (AfDB)","DAC","Sierra Leone","SLE","230","Energy Generation and Supply","23000","Energy generation and supply, combinations ofpurposes","Completion","2009","2010","13097009.0","10606527.0","1190637.18182","964229.727273"
"SL/000118","SL/000118_2406407","1","2406407","Makeni","8.88605","-12.04418","PPLA","seat of a first-order administrative division","6295630|6255146|SL|02|2406407","Earth|Africa|Sierra Leone|Northern Province|Makeni","2","1","1","Bumbuna Hydro Electric Project - Supplementary Loan","2009-04-06","start-actual","2010-03-26","end-actual","African Development Bank (AfDB)","DAC","Sierra Leone","SLE","230","Energy Generation and Supply","23000","Energy generation and supply, combinations ofpurposes","Completion","2009","2010","13097009.0","10606527.0","1190637.18182","964229.727273"
"SL/000118","SL/000118_2404431","3","2404431","Port Loko District","8.72386","-12.75904","ADM2","second-order administrative division","6295630|6255146|SL|02|2404431","Earth|Africa|Sierra Leone|Northern Province|Port Loko District","1","1","1","Bumbuna Hydro Electric Project - Supplementary Loan","2009-04-06","start-actual","2010-03-26","end-actual","African Development Bank (AfDB)","DAC","Sierra Leone","SLE","230","Energy Generation and Supply","23000","Energy generation and supply, combinations ofpurposes","Completion","2009","2010","13097009.0","10606527.0","1190637.18182","964229.727273"
"SL/000118","SL/000118_2403287","3","2403287","Tonkolili District","8.61885","-11.84173","ADM2","second-order administrative division","6295630|6255146|SL|02|2403287","Earth|Africa|Sierra Leone|Northern Province|Tonkolili District","1","1","1","Bumbuna Hydro Electric Project - Supplementary Loan","2009-04-06","start-actual","2010-03-26","end-actual","African Development Bank (AfDB)","DAC","Sierra Leone","SLE","230","Energy Generation and Supply","23000","Energy generation and supply, combinations ofpurposes","Completion","2009","2010","13097009.0","10606527.0","1190637.18182","964229.727273"
"SL/000118","SL/000118_2409983","3","2409983","Bombali District","9.28444","-12.16449","ADM2","second-order administrative division","6295630|6255146|SL|02|2409983","Earth|Africa|Sierra Leone|Northern Province|Bombali District","1","1","1","Bumbuna Hydro Electric Project - Supplementary Loan","2009-04-06","start-actual","2010-03-26","end-actual","African Development Bank (AfDB)","DAC","Sierra Leone","SLE","230","Energy Generation and Supply","23000","Energy generation and supply, combinations ofpurposes","Completion","2009","2010","13097009.0","10606527.0","1190637.18182","964229.727273"
"SL/000118","SL/000118_2409306","1","2409306","Freetown","8.484","-13.22994","PPLC","capital of a political entity","6295630|6255146|SL|04|2409306","Earth|Africa|Sierra Leone|Western Area|Freetown","2","1","1","Bumbuna Hydro Electric Project - Supplementary Loan","2009-04-06","start-actual","2010-03-26","end-actual","African Development Bank (AfDB)","DAC","Sierra Leone","SLE","230","Energy Generation and Supply","23000","Energy generation and supply, combinations ofpurposes","Completion","2009","2010","13097009.0","10606527.0","1190637.18182","964229.727273"
"SL/000118","SL/000118_2403068","4","2403068","Western Area","8.33333","-13.11667","ADM1","first-order administrative division","6295630|6255146|SL|04","Earth|Africa|Sierra Leone|Western Area","1","1","1","Bumbuna Hydro Electric Project - Supplementary Loan","2009-04-06","start-actual","2010-03-26","end-actual","African Development Bank (AfDB)","DAC","Sierra Leone","SLE","230","Energy Generation and Supply","23000","Energy generation and supply, combinations ofpurposes","Completion","2009","2010","13097009.0","10606527.0","1190637.18182","964229.727273"
"SL/000118","SL/000118_2404798","4","2404798","Northern Province","9.13333","-12.0","ADM1","first-order administrative division","6295630|6255146|SL|02","Earth|Africa|Sierra Leone|Northern Province","1","1","1","Bumbuna Hydro Electric Project - Supplementary Loan","2009-04-06","start-actual","2010-03-26","end-actual","African Development Bank (AfDB)","DAC","Sierra Leone","SLE","230","Energy Generation and Supply","23000","Energy generation and supply, combinations ofpurposes","Completion","2009","2010","13097009.0","10606527.0","1190637.18182","964229.727273"
"SL/000532","SL/000532_2404433","1","2404433","Port Loko","8.76609","-12.78696","PPL","populated place","6295630|6255146|SL|02|2404433","Earth|Africa|Sierra Leone|Northern Province|Port Loko","2","1","1","Bumbuna Hydro Environmental & Social Management","2006-12-19","start-actual","2013-12-30","end-actual","World Bank","DAC","Sierra Leone","SLE","998|410","Unallocated / Unspecified|General environmental protection","99810|41020","Sectors not specified|Biosphere protection","Completion","2006","2013","18476794.0","16532420.0","2639542.0","2361774.28571"
"SL/000532","SL/000532_2406576","1","2406576","Magburaka","8.72306","-11.9488","PPL","populated place","6295630|6255146|SL|02|2406576","Earth|Africa|Sierra Leone|Northern Province|Magburaka","2","1","1","Bumbuna Hydro Environmental & Social Management","2006-12-19","start-actual","2013-12-30","end-actual","World Bank","DAC","Sierra Leone","SLE","998|410","Unallocated / Unspecified|General environmental protection","99810|41020","Sectors not specified|Biosphere protection","Completion","2006","2013","18476794.0","16532420.0","2639542.0","2361774.28571"
"SL/000532","SL/000532_2409829","1","2409829","Bumbuna","9.04466","-11.74576","PPL","populated place","6295630|6255146|SL|02|2409829","Earth|Africa|Sierra Leone|Northern Province|Bumbuna","2","1","1","Bumbuna Hydro Environmental & Social Management","2006-12-19","start-actual","2013-12-30","end-actual","World Bank","DAC","Sierra Leone","SLE","998|410","Unallocated / Unspecified|General environmental protection","99810|41020","Sectors not specified|Biosphere protection","Completion","2006","2013","18476794.0","16532420.0","2639542.0","2361774.28571"
"SL/000532","SL/000532_2406916","1","2406916","Lunsar","8.68439","-12.53499","PPL","populated place","6295630|6255146|SL|02|2406916","Earth|Africa|Sierra Leone|Northern Province|Lunsar","2","1","1","Bumbuna Hydro Environmental & Social Management","2006-12-19","start-actual","2013-12-30","end-actual","World Bank","DAC","Sierra Leone","SLE","998|410","Unallocated / Unspecified|General environmental protection","99810|41020","Sectors not specified|Biosphere protection","Completion","2006","2013","18476794.0","16532420.0","2639542.0","2361774.28571"
"SL/000532","SL/000532_2406411","1","2406411","Makeni Rofulla","8.42327","-12.54132","PPL","populated place","6295630|6255146|SL|02|2406411","Earth|Africa|Sierra Leone|Northern Province|Makeni Rofulla","2","1","1","Bumbuna Hydro Environmental & Social Management","2006-12-19","start-actual","2013-12-30","end-actual","World Bank","DAC","Sierra Leone","SLE","998|410","Unallocated / Unspecified|General environmental protection","99810|41020","Sectors not specified|Biosphere protection","Completion","2006","2013","18476794.0","16532420.0","2639542.0","2361774.28571"
"SL/000532","SL/000532_2402785","1","2402785","Yiben","8.98333","-11.75","PPL","populated place","6295630|6255146|SL|02|2402785","Earth|Africa|Sierra Leone|Northern Province|Yiben","2","1","1","Bumbuna Hydro Environmental & Social Management","2006-12-19","start-actual","2013-12-30","end-actual","World Bank","DAC","Sierra Leone","SLE","998|410","Unallocated / Unspecified|General environmental protection","99810|41020","Sectors not specified|Biosphere protection","Completion","2006","2013","18476794.0","16532420.0","2639542.0","2361774.28571"
"SL/000532","SL/000532_2409306","1","2409306","Freetown","8.484","-13.22994","PPLC","capital of a political entity","6295630|6255146|SL|04|2409306","Earth|Africa|Sierra Leone|Western Area|Freetown","2","1","1","Bumbuna Hydro Environmental & Social Management","2006-12-19","start-actual","2013-12-30","end-actual","World Bank","DAC","Sierra Leone","SLE","998|410","Unallocated / Unspecified|General environmental protection","99810|41020","Sectors not specified|Biosphere protection","Completion","2006","2013","18476794.0","16532420.0","2639542.0","2361774.28571"
"SL/001424","SL/001424_2404433","1","2404433","Port Loko","8.76609","-12.78696","PPL","populated place","6295630|6255146|SL|02|2404433","Earth|Africa|Sierra Leone|Northern Province|Port Loko","2","1","1","Lungi - Port Loko  Road","2009-09-17","start-actual","2015-12-21","","African Development Bank (AfDB)","DAC","Sierra Leone","SLE","210","Transport and Storage","21020","Road transport","Implementation","2009","2015","34492215.0","34492214.0","4927459.28571","4927459.14286"
"SL/001424","SL/001424_2406919","1","2406919","Lungi","8.90325","-12.51762","PPL","populated place","6295630|6255146|SL|02|2406919","Earth|Africa|Sierra Leone|Northern Province|Lungi","2","1","1","Lungi - Port Loko  Road","2009-09-17","start-actual","2015-12-21","","African Development Bank (AfDB)","DAC","Sierra Leone","SLE","210","Transport and Storage","21020","Road transport","Implementation","2009","2015","34492215.0","34492214.0","4927459.28571","4927459.14286"
"SL/001424","SL/001424_2404431","3","2404431","Port Loko District","8.72386","-12.75904","ADM2","second-order administrative division","6295630|6255146|SL|02|2404431","Earth|Africa|Sierra Leone|Northern Province|Port Loko District","1","1","1","Lungi - Port Loko  Road","2009-09-17","start-actual","2015-12-21","","African Development Bank (AfDB)","DAC","Sierra Leone","SLE","210","Transport and Storage","21020","Road transport","Implementation","2009","2015","34492215.0","34492214.0","4927459.28571","4927459.14286"
"SL/001424","SL/001424_9180373","2","9180373","Buya Romende","8.83737","-12.40962","ADM3","third-order administrative division","6295630|6255146|SL|02|9180373","Earth|Africa|Sierra Leone|Northern Province|Buya Romende","1","1","1","Lungi - Port Loko  Road","2009-09-17","start-actual","2015-12-21","","African Development Bank (AfDB)","DAC","Sierra Leone","SLE","210","Transport and Storage","21020","Road transport","Implementation","2009","2015","34492215.0","34492214.0","4927459.28571","4927459.14286"
"SL/001424","SL/001424_9180378","2","9180378","Debia","8.95423","-12.52529","ADM3","third-order administrative division","6295630|6255146|SL|02|9180378","Earth|Africa|Sierra Leone|Northern Province|Debia","1","1","1","Lungi - Port Loko  Road","2009-09-17","start-actual","2015-12-21","","African Development Bank (AfDB)","DAC","Sierra Leone","SLE","210","Transport and Storage","21020","Road transport","Implementation","2009","2015","34492215.0","34492214.0","4927459.28571","4927459.14286"
"SL/001424","SL/001424_9180327","2","9180327","Maforki","8.72906","-12.7296","ADM3","third-order administrative division","6295630|6255146|SL|02|9180327","Earth|Africa|Sierra Leone|Northern Province|Maforki","1","1","1","Lungi - Port Loko  Road","2009-09-17","start-actual","2015-12-21","","African Development Bank (AfDB)","DAC","Sierra Leone","SLE","210","Transport and Storage","21020","Road transport","Implementation","2009","2015","34492215.0","34492214.0","4927459.28571","4927459.14286"
"SL/001424","SL/001424_9180292","2","9180292","Tinkatupa Maka Safroko","8.83685","-12.58498","ADM3","third-order administrative division","6295630|6255146|SL|02|9180292","Earth|Africa|Sierra Leone|Northern Province|Tinkatupa Maka Safroko","1","1","1","Lungi - Port Loko  Road","2009-09-17","start-actual","2015-12-21","","African Development Bank (AfDB)","DAC","Sierra Leone","SLE","210","Transport and Storage","21020","Road transport","Implementation","2009","2015","34492215.0","34492214.0","4927459.28571","4927459.14286"
"SL/001666","SL/001666_2404433","1","2404433","Port Loko","8.76609","-12.78696","PPL","populated place","6295630|6255146|SL|02|2404433","Earth|Africa|Sierra Leone|Northern Province|Port Loko","2","1","1","Rehabilitation/Extension of the SLRA Head Quarters Blackhall Road, Kissy, Freetown and Regional Offices in Bo, Kenema, Makeni and Port Loko","2012-05-29","start-actual","2014-12-31","","European Union (EU)","DAC","Sierra Leone","SLE","160","Other Social Infrastructure and Services","16030","Housing policy and administrative management","Implementation","2012","2014","264180.0","264180.0","66045.0","66045.0"
"SL/001666","SL/001666_2410048","1","2410048","Bo","7.96472","-11.73833","PPLA","seat of a first-order administrative division","6295630|6255146|SL|03|2410048","Earth|Africa|Sierra Leone|Southern Province|Bo","2","1","1","Rehabilitation/Extension of the SLRA Head Quarters Blackhall Road, Kissy, Freetown and Regional Offices in Bo, Kenema, Makeni and Port Loko","2012-05-29","start-actual","2014-12-31","","European Union (EU)","DAC","Sierra Leone","SLE","160","Other Social Infrastructure and Services","16030","Housing policy and administrative management","Implementation","2012","2014","264180.0","264180.0","66045.0","66045.0"
"SL/001666","SL/001666_2407790","1","2407790","Kenema","7.87687","-11.19025","PPLA","seat of a first-order administrative division","6295630|6255146|SL|01|2407790","Earth|Africa|Sierra Leone|Eastern Province|Kenema","2","1","1","Rehabilitation/Extension of the SLRA Head Quarters Blackhall Road, Kissy, Freetown and Regional Offices in Bo, Kenema, Makeni and Port Loko","2012-05-29","start-actual","2014-12-31","","European Union (EU)","DAC","Sierra Leone","SLE","160","Other Social Infrastructure and Services","16030","Housing policy and administrative management","Implementation","2012","2014","264180.0","264180.0","66045.0","66045.0"
"SL/001666","SL/001666_2406407","1","2406407","Makeni","8.88605","-12.04418","PPLA","seat of a first-order administrative division","6295630|6255146|SL|02|2406407","Earth|Africa|Sierra Leone|Northern Province|Makeni","2","1","1","Rehabilitation/Extension of the SLRA Head Quarters Blackhall Road, Kissy, Freetown and Regional Offices in Bo, Kenema, Makeni and Port Loko","2012-05-29","start-actual","2014-12-31","","European Union (EU)","DAC","Sierra Leone","SLE","160","Other Social Infrastructure and Services","16030","Housing policy and administrative management","Implementation","2012","2014","264180.0","264180.0","66045.0","66045.0"
"SL/001316","SL/001316_2404433","1","2404433","Port Loko","8.76609","-12.78696","PPL","populated place","6295630|6255146|SL|02|2404433","Earth|Africa|Sierra Leone|Northern Province|Port Loko","2","1","1","Support to Sierra Leone Investment Forum","2009-11-01","start-actual","2009-11-30","","Department for International Development (DFID)","GBR","Sierra Leone","SLE","151","Government and civil society, general","15141","Government administration","Completion","2009","2009","337072.0","333502.0","67414.4","66700.4"
"SL/001316","SL/001316_2410048","1","2410048","Bo","7.96472","-11.73833","PPLA","seat of a first-order administrative division","6295630|6255146|SL|03|2410048","Earth|Africa|Sierra Leone|Southern Province|Bo","2","1","1","Support to Sierra Leone Investment Forum","2009-11-01","start-actual","2009-11-30","","Department for International Development (DFID)","GBR","Sierra Leone","SLE","151","Government and civil society, general","15141","Government administration","Completion","2009","2009","337072.0","333502.0","67414.4","66700.4"
"SL/001316","SL/001316_2407790","1","2407790","Kenema","7.87687","-11.19025","PPLA","seat of a first-order administrative division","6295630|6255146|SL|01|2407790","Earth|Africa|Sierra Leone|Eastern Province|Kenema","2","1","1","Support to Sierra Leone Investment Forum","2009-11-01","start-actual","2009-11-30","","Department for International Development (DFID)","GBR","Sierra Leone","SLE","151","Government and civil society, general","15141","Government administration","Completion","2009","2009","337072.0","333502.0","67414.4","66700.4"
"SL/001316","SL/001316_2406407","1","2406407","Makeni","8.88605","-12.04418","PPLA","seat of a first-order administrative division","6295630|6255146|SL|02|2406407","Earth|Africa|Sierra Leone|Northern Province|Makeni","2","1","1","Support to Sierra Leone Investment Forum","2009-11-01","start-actual","2009-11-30","","Department for International Development (DFID)","GBR","Sierra Leone","SLE","151","Government and civil society, general","15141","Government administration","Completion","2009","2009","337072.0","333502.0","67414.4","66700.4"
"SL/001316","SL/001316_2409306","1","2409306","Freetown","8.484","-13.22994","PPLC","capital of a political entity","6295630|6255146|SL|04|2409306","Earth|Africa|Sierra Leone|Western Area|Freetown","2","1","1","Support to Sierra Leone Investment Forum","2009-11-01","start-actual","2009-11-30","","Department for International Development (DFID)","GBR","Sierra Leone","SLE","151","Government and civil society, general","15141","Government administration","Completion","2009","2009","337072.0","333502.0","67414.4","66700.4"
"SL/000782","SL/000782_2403643","1","2403643","Taiama","8.2013","-12.05996","PPL","populated place","6295630|6255146|SL|03|2403643","Earth|Africa|Sierra Leone|Southern Province|Taiama","2","1","1","Road infrastructure Programme","2003-11-24","start-actual","2010-12-31","end-actual","European Union (EU)","DAC","Sierra Leone","SLE","210","Transport and Storage","21020","Road transport","Completion","2003","2010","82040007.0","81765304.0","6836667.25","6813775.33333"
"SL/000782","SL/000782_2403753","1","2403753","Songo","8.36843","-12.93282","PPL","populated place","6295630|6255146|SL|02|2403753","Earth|Africa|Sierra Leone|Northern Province|Songo","2","1","1","Road infrastructure Programme","2003-11-24","start-actual","2010-12-31","end-actual","European Union (EU)","DAC","Sierra Leone","SLE","210","Transport and Storage","21020","Road transport","Completion","2003","2010","82040007.0","81765304.0","6836667.25","6813775.33333"
"SL/000782","SL/000782_2405006","1","2405006","Moyamba Junction","8.32444","-12.21585","PPL","populated place","6295630|6255146|SL|03|2405006","Earth|Africa|Sierra Leone|Southern Province|Moyamba Junction","2","1","1","Road infrastructure Programme","2003-11-24","start-actual","2010-12-31","end-actual","European Union (EU)","DAC","Sierra Leone","SLE","210","Transport and Storage","21020","Road transport","Completion","2003","2010","82040007.0","81765304.0","6836667.25","6813775.33333"
"SL/000782","SL/000782_8469050","1","8469050","Masiaka","8.76667","-12.7875","PPL","populated place","6295630|6255146|SL|02|8469050","Earth|Africa|Sierra Leone|Northern Province|Masiaka","2","1","1","Road infrastructure Programme","2003-11-24","start-actual","2010-12-31","end-actual","European Union (EU)","DAC","Sierra Leone","SLE","210","Transport and Storage","21020","Road transport","Completion","2003","2010","82040007.0","81765304.0","6836667.25","6813775.33333"
"SL/000782","SL/000782_2405011","1","2405011","Moyamba","8.21803","-12.93418","PPL","populated place","6295630|6255146|SL|03|2405011","Earth|Africa|Sierra Leone|Southern Province|Moyamba","2","1","1","Road infrastructure Programme","2003-11-24","start-actual","2010-12-31","end-actual","European Union (EU)","DAC","Sierra Leone","SLE","210","Transport and Storage","21020","Road transport","Completion","2003","2010","82040007.0","81765304.0","6836667.25","6813775.33333"
"SL/000782","SL/000782_2410048","1","2410048","Bo","7.96472","-11.73833","PPLA","seat of a first-order administrative division","6295630|6255146|SL|03|2410048","Earth|Africa|Sierra Leone|Southern Province|Bo","2","1","1","Road infrastructure Programme","2003-11-24","start-actual","2010-12-31","end-actual","European Union (EU)","DAC","Sierra Leone","SLE","210","Transport and Storage","21020","Road transport","Completion","2003","2010","82040007.0","81765304.0","6836667.25","6813775.33333"
"SL/000782","SL/000782_2407790","1","2407790","Kenema","7.87687","-11.19025","PPLA","seat of a first-order administrative division","6295630|6255146|SL|01|2407790","Earth|Africa|Sierra Leone|Eastern Province|Kenema","2","1","1","Road infrastructure Programme","2003-11-24","start-actual","2010-12-31","end-actual","European Union (EU)","DAC","Sierra Leone","SLE","210","Transport and Storage","21020","Road transport","Completion","2003","2010","82040007.0","81765304.0","6836667.25","6813775.33333"
"SL/000782","SL/000782_2410021","3","2410021","Bo District","7.98877","-11.6734","ADM2","second-order administrative division","6295630|6255146|SL|03|2410021","Earth|Africa|Sierra Leone|Southern Province|Bo District","1","1","1","Road infrastructure Programme","2003-11-24","start-actual","2010-12-31","end-actual","European Union (EU)","DAC","Sierra Leone","SLE","210","Transport and Storage","21020","Road transport","Completion","2003","2010","82040007.0","81765304.0","6836667.25","6813775.33333"
"SL/000782","SL/000782_2405008","3","2405008","Moyamba District","8.0629","-12.44401","ADM2","second-order administrative division","6295630|6255146|SL|03|2405008","Earth|Africa|Sierra Leone|Southern Province|Moyamba District","1","1","1","Road infrastructure Programme","2003-11-24","start-actual","2010-12-31","end-actual","European Union (EU)","DAC","Sierra Leone","SLE","210","Transport and Storage","21020","Road transport","Completion","2003","2010","82040007.0","81765304.0","6836667.25","6813775.33333"
"SL/000782","SL/000782_2404431","3","2404431","Port Loko District","8.72386","-12.75904","ADM2","second-order administrative division","6295630|6255146|SL|02|2404431","Earth|Africa|Sierra Leone|Northern Province|Port Loko District","1","1","1","Road infrastructure Programme","2003-11-24","start-actual","2010-12-31","end-actual","European Union (EU)","DAC","Sierra Leone","SLE","210","Transport and Storage","21020","Road transport","Completion","2003","2010","82040007.0","81765304.0","6836667.25","6813775.33333"
"SL/000782","SL/000782_2403287","3","2403287","Tonkolili District","8.61885","-11.84173","ADM2","second-order administrative division","6295630|6255146|SL|02|2403287","Earth|Africa|Sierra Leone|Northern Province|Tonkolili District","1","1","1","Road infrastructure Programme","2003-11-24","start-actual","2010-12-31","end-actual","European Union (EU)","DAC","Sierra Leone","SLE","210","Transport and Storage","21020","Road transport","Completion","2003","2010","82040007.0","81765304.0","6836667.25","6813775.33333"
"SL/000782","SL/000782_9179950","3","9179950","Western Area Rural","8.32319","-13.09485","ADM2","second-order administrative division","6295630|6255146|SL|04|9179950","Earth|Africa|Sierra Leone|Western Area|Western Area Rural","1","1","1","Road infrastructure Programme","2003-11-24","start-actual","2010-12-31","end-actual","European Union (EU)","DAC","Sierra Leone","SLE","210","Transport and Storage","21020","Road transport","Completion","2003","2010","82040007.0","81765304.0","6836667.25","6813775.33333"
"SL/000546","SL/000546_9191693","1","9191693","Goderich","8.43333","-13.28333","PPL","populated place","6295630|6255146|SL|9191693","Earth|Africa|Sierra Leone|Goderich","2","1","1","Artisanal Fisheries Development Project (AFDEP)","2003-06-09","start-actual","2011-10-31","end-actual","African Development Bank (AfDB)","DAC","Sierra Leone","SLE","313","Fishing","31320","Fishery development","Completion","2003","2011","17286470.0","16560585.0","4321617.5","4140146.25"
"SL/000546","SL/000546_2409914","1","2409914","Bonthe","7.52639","-12.505","PPL","populated place","6295630|6255146|SL|03|2409914","Earth|Africa|Sierra Leone|Southern Province|Bonthe","2","1","1","Artisanal Fisheries Development Project (AFDEP)","2003-06-09","start-actual","2011-10-31","end-actual","African Development Bank (AfDB)","DAC","Sierra Leone","SLE","313","Fishing","31320","Fishery development","Completion","2003","2011","17286470.0","16560585.0","4321617.5","4140146.25"
"SL/000546","SL/000546_2403868","1","2403868","Shenge","7.91444","-12.9575","PPL","populated place","6295630|6255146|SL|03|2403868","Earth|Africa|Sierra Leone|Southern Province|Shenge","2","1","1","Artisanal Fisheries Development Project (AFDEP)","2003-06-09","start-actual","2011-10-31","end-actual","African Development Bank (AfDB)","DAC","Sierra Leone","SLE","313","Fishing","31320","Fishery development","Completion","2003","2011","17286470.0","16560585.0","4321617.5","4140146.25"
"SL/000546","SL/000546_9191809","1","9191809","Tombo","8.33333","-13.06667","PPL","populated place","6295630|6255146|SL|04|9191809","Earth|Africa|Sierra Leone|Western Area|Tombo","2","1","1","Artisanal Fisheries Development Project (AFDEP)","2003-06-09","start-actual","2011-10-31","end-actual","African Development Bank (AfDB)","DAC","Sierra Leone","SLE","313","Fishing","31320","Fishery development","Completion","2003","2011","17286470.0","16560585.0","4321617.5","4140146.25"
"SL/001489","SL/001489_9191693","1","9191693","Goderich","8.43333","-13.28333","PPL","populated place","6295630|6255146|SL|9191693","Earth|Africa|Sierra Leone|Goderich","2","1","1","Peri and Urban Community Action for Food Security Programme(PUCAFS)","2009-01-01","start-actual","2016-02-01","","European Union (EU)","DAC","Sierra Leone","SLE","311","Agriculture","31120","Agricultural development","Implementation","2009","2016","2556340.0","1855393.0","365191.428571","265056.142857"
"SL/001489","SL/001489_2408582","1","2408582","Hastings","8.37994","-13.13693","PPL","populated place","6295630|6255146|SL|04|2408582","Earth|Africa|Sierra Leone|Western Area|Hastings","2","1","1","Peri and Urban Community Action for Food Security Programme(PUCAFS)","2009-01-01","start-actual","2016-02-01","","European Union (EU)","DAC","Sierra Leone","SLE","311","Agriculture","31120","Agricultural development","Implementation","2009","2016","2556340.0","1855393.0","365191.428571","265056.142857"
"SL/001489","SL/001489_2403094","1","2403094","Waterloo","8.3389","-13.07091","PPL","populated place","6295630|6255146|SL|04|2403094","Earth|Africa|Sierra Leone|Western Area|Waterloo","2","1","1","Peri and Urban Community Action for Food Security Programme(PUCAFS)","2009-01-01","start-actual","2016-02-01","","European Union (EU)","DAC","Sierra Leone","SLE","311","Agriculture","31120","Agricultural development","Implementation","2009","2016","2556340.0","1855393.0","365191.428571","265056.142857"
"SL/001489","SL/001489_7730333","1","7730333","Kingtom","8.48793","-13.24759","PPL","populated place","6295630|6255146|SL|04|7730333","Earth|Africa|Sierra Leone|Western Area|Kingtom","2","1","1","Peri and Urban Community Action for Food Security Programme(PUCAFS)","2009-01-01","start-actual","2016-02-01","","European Union (EU)","DAC","Sierra Leone","SLE","311","Agriculture","31120","Agricultural development","Implementation","2009","2016","2556340.0","1855393.0","365191.428571","265056.142857"
"SL/001489","SL/001489_2406931","1","2406931","Lumley","8.46063","-13.26976","PPL","populated place","6295630|6255146|SL|04|2406931","Earth|Africa|Sierra Leone|Western Area|Lumley","2","1","1","Peri and Urban Community Action for Food Security Programme(PUCAFS)","2009-01-01","start-actual","2016-02-01","","European Union (EU)","DAC","Sierra Leone","SLE","311","Agriculture","31120","Agricultural development","Implementation","2009","2016","2556340.0","1855393.0","365191.428571","265056.142857"
"SL/001489","SL/001489_2410707","1","2410707","Allen Town","8.41375","-13.15998","PPL","populated place","6295630|6255146|SL|04|2410707","Earth|Africa|Sierra Leone|Western Area|Allen Town","2","1","1","Peri and Urban Community Action for Food Security Programme(PUCAFS)","2009-01-01","start-actual","2016-02-01","","European Union (EU)","DAC","Sierra Leone","SLE","311","Agriculture","31120","Agricultural development","Implementation","2009","2016","2556340.0","1855393.0","365191.428571","265056.142857"
"SL/001489","SL/001489_2409306","1","2409306","Freetown","8.484","-13.22994","PPLC","capital of a political entity","6295630|6255146|SL|04|2409306","Earth|Africa|Sierra Leone|Western Area|Freetown","2","1","1","Peri and Urban Community Action for Food Security Programme(PUCAFS)","2009-01-01","start-actual","2016-02-01","","European Union (EU)","DAC","Sierra Leone","SLE","311","Agriculture","31120","Agricultural development","Implementation","2009","2016","2556340.0","1855393.0","365191.428571","265056.142857"
"SL/000659","SL/000659_2408329","1","2408329","Kabala","9.58893","-11.55256","PPL","populated place","6295630|6255146|SL|02|2408329","Earth|Africa|Sierra Leone|Northern Province|Kabala","2","1","1","National Programme of Action for Adaptation to climate change","2004-11-15","start-actual","2007-12-31","end-actual","Global Environment Facility","DAC","Sierra Leone","SLE","410","General environmental protection","41005","General environmental protection,purpose unspecified","","2004","2007","186226.0","207744.0","8867.9047619","9892.57142857"
"SL/000659","SL/000659_2404841","1","2404841","Njala","8.1121","-12.07523","PPL","populated place","6295630|6255146|SL|03|2404841","Earth|Africa|Sierra Leone|Southern Province|Njala","2","1","1","National Programme of Action for Adaptation to climate change","2004-11-15","start-actual","2007-12-31","end-actual","Global Environment Facility","DAC","Sierra Leone","SLE","410","General environmental protection","41005","General environmental protection,purpose unspecified","","2004","2007","186226.0","207744.0","8867.9047619","9892.57142857"
"SL/000659","SL/000659_2403868","1","2403868","Shenge","7.91444","-12.9575","PPL","populated place","6295630|6255146|SL|03|2403868","Earth|Africa|Sierra Leone|Southern Province|Shenge","2","1","1","National Programme of Action for Adaptation to climate change","2004-11-15","start-actual","2007-12-31","end-actual","Global Environment Facility","DAC","Sierra Leone","SLE","410","General environmental protection","41005","General environmental protection,purpose unspecified","","2004","2007","186226.0","207744.0","8867.9047619","9892.57142857"
"SL/000659","SL/000659_2410596","1","2410596","Bakuya","8.5","-11.15","PPL","populated place","6295630|6255146|SL|01|2410596","Earth|Africa|Sierra Leone|Eastern Province|Bakuya","2","1","1","National Programme of Action for Adaptation to climate change","2004-11-15","start-actual","2007-12-31","end-actual","Global Environment Facility","DAC","Sierra Leone","SLE","410","General environmental protection","41005","General environmental protection,purpose unspecified","","2004","2007","186226.0","207744.0","8867.9047619","9892.57142857"
"SL/000659","SL/000659_2409663","1","2409663","Daru","7.98976","-10.84223","PPL","populated place","6295630|6255146|SL|01|2409663","Earth|Africa|Sierra Leone|Eastern Province|Daru","2","1","1","National Programme of Action for Adaptation to climate change","2004-11-15","start-actual","2007-12-31","end-actual","Global Environment Facility","DAC","Sierra Leone","SLE","410","General environmental protection","41005","General environmental protection,purpose unspecified","","2004","2007","186226.0","207744.0","8867.9047619","9892.57142857"
"SL/000659","SL/000659_2408250","1","2408250","Kailahun","8.2789","-10.573","PPL","populated place","6295630|6255146|SL|01|2408250","Earth|Africa|Sierra Leone|Eastern Province|Kailahun","2","1","1","National Programme of Action for Adaptation to climate change","2004-11-15","start-actual","2007-12-31","end-actual","Global Environment Facility","DAC","Sierra Leone","SLE","410","General environmental protection","41005","General environmental protection,purpose unspecified","","2004","2007","186226.0","207744.0","8867.9047619","9892.57142857"
"SL/000659","SL/000659_2408154","1","2408154","Kamakwie","9.49689","-12.24061","PPL","populated place","6295630|6255146|SL|02|2408154","Earth|Africa|Sierra Leone|Northern Province|Kamakwie","2","1","1","National Programme of Action for Adaptation to climate change","2004-11-15","start-actual","2007-12-31","end-actual","Global Environment Facility","DAC","Sierra Leone","SLE","410","General environmental protection","41005","General environmental protection,purpose unspecified","","2004","2007","186226.0","207744.0","8867.9047619","9892.57142857"
"SL/000659","SL/000659_2404049","1","2404049","Sefadu","8.65","-10.98333","PPL","populated place","6295630|6255146|SL|01|2404049","Earth|Africa|Sierra Leone|Eastern Province|Sefadu","2","1","1","National Programme of Action for Adaptation to climate change","2004-11-15","start-actual","2007-12-31","end-actual","Global Environment Facility","DAC","Sierra Leone","SLE","410","General environmental protection","41005","General environmental protection,purpose unspecified","","2004","2007","186226.0","207744.0","8867.9047619","9892.57142857"
"SL/000659","SL/000659_2403717","1","2403717","Suma","8.89791","-10.89006","PPL","populated place","6295630|6255146|SL|01|2403717","Earth|Africa|Sierra Leone|Eastern Province|Suma","2","1","1","National Programme of Action for Adaptation to climate change","2004-11-15","start-actual","2007-12-31","end-actual","Global Environment Facility","DAC","Sierra Leone","SLE","410","General environmental protection","41005","General environmental protection,purpose unspecified","","2004","2007","186226.0","207744.0","8867.9047619","9892.57142857"
"SL/000659","SL/000659_2402866","1","2402866","Yele","8.02349","-12.34156","PPL","populated place","6295630|6255146|SL|03|2402866","Earth|Africa|Sierra Leone|Southern Province|Yele","2","1","1","National Programme of Action for Adaptation to climate change","2004-11-15","start-actual","2007-12-31","end-actual","Global Environment Facility","DAC","Sierra Leone","SLE","410","General environmental protection","41005","General environmental protection,purpose unspecified","","2004","2007","186226.0","207744.0","8867.9047619","9892.57142857"
"SL/000659","SL/000659_2405008","3","2405008","Moyamba District","8.0629","-12.44401","ADM2","second-order administrative division","6295630|6255146|SL|03|2405008","Earth|Africa|Sierra Leone|Southern Province|Moyamba District","1","1","1","National Programme of Action for Adaptation to climate change","2004-11-15","start-actual","2007-12-31","end-actual","Global Environment Facility","DAC","Sierra Leone","SLE","410","General environmental protection","41005","General environmental protection,purpose unspecified","","2004","2007","186226.0","207744.0","8867.9047619","9892.57142857"
"SL/000659","SL/000659_2404431","3","2404431","Port Loko District","8.72386","-12.75904","ADM2","second-order administrative division","6295630|6255146|SL|02|2404431","Earth|Africa|Sierra Leone|Northern Province|Port Loko District","1","1","1","National Programme of Action for Adaptation to climate change","2004-11-15","start-actual","2007-12-31","end-actual","Global Environment Facility","DAC","Sierra Leone","SLE","410","General environmental protection","41005","General environmental protection,purpose unspecified","","2004","2007","186226.0","207744.0","8867.9047619","9892.57142857"
"SL/000659","SL/000659_2403287","3","2403287","Tonkolili District","8.61885","-11.84173","ADM2","second-order administrative division","6295630|6255146|SL|02|2403287","Earth|Africa|Sierra Leone|Northern Province|Tonkolili District","1","1","1","National Programme of Action for Adaptation to climate change","2004-11-15","start-actual","2007-12-31","end-actual","Global Environment Facility","DAC","Sierra Leone","SLE","410","General environmental protection","41005","General environmental protection,purpose unspecified","","2004","2007","186226.0","207744.0","8867.9047619","9892.57142857"
"SL/000659","SL/000659_2407650","3","2407650","Koinadugu District","9.50991","-11.34601","ADM2","second-order administrative division","6295630|6255146|SL|02|2407650","Earth|Africa|Sierra Leone|Northern Province|Koinadugu District","1","1","1","National Programme of Action for Adaptation to climate change","2004-11-15","start-actual","2007-12-31","end-actual","Global Environment Facility","DAC","Sierra Leone","SLE","410","General environmental protection","41005","General environmental protection,purpose unspecified","","2004","2007","186226.0","207744.0","8867.9047619","9892.57142857"
"SL/000659","SL/000659_2408083","3","2408083","Kambia District","9.18251","-12.81309","ADM2","second-order administrative division","6295630|6255146|SL|02|2408083","Earth|Africa|Sierra Leone|Northern Province|Kambia District","1","1","1","National Programme of Action for Adaptation to climate change","2004-11-15","start-actual","2007-12-31","end-actual","Global Environment Facility","DAC","Sierra Leone","SLE","410","General environmental protection","41005","General environmental protection,purpose unspecified","","2004","2007","186226.0","207744.0","8867.9047619","9892.57142857"
"SL/000659","SL/000659_2409983","3","2409983","Bombali District","9.28444","-12.16449","ADM2","second-order administrative division","6295630|6255146|SL|02|2409983","Earth|Africa|Sierra Leone|Northern Province|Bombali District","1","1","1","National Programme of Action for Adaptation to climate change","2004-11-15","start-actual","2007-12-31","end-actual","Global Environment Facility","DAC","Sierra Leone","SLE","410","General environmental protection","41005","General environmental protection,purpose unspecified","","2004","2007","186226.0","207744.0","8867.9047619","9892.57142857"
"SL/000659","SL/000659_2409306","1","2409306","Freetown","8.484","-13.22994","PPLC","capital of a political entity","6295630|6255146|SL|04|2409306","Earth|Africa|Sierra Leone|Western Area|Freetown","2","1","1","National Programme of Action for Adaptation to climate change","2004-11-15","start-actual","2007-12-31","end-actual","Global Environment Facility","DAC","Sierra Leone","SLE","410","General environmental protection","41005","General environmental protection,purpose unspecified","","2004","2007","186226.0","207744.0","8867.9047619","9892.57142857"
"SL/000659","SL/000659_2403068","4","2403068","Western Area","8.33333","-13.11667","ADM1","first-order administrative division","6295630|6255146|SL|04","Earth|Africa|Sierra Leone|Western Area","1","1","1","National Programme of Action for Adaptation to climate change","2004-11-15","start-actual","2007-12-31","end-actual","Global Environment Facility","DAC","Sierra Leone","SLE","410","General environmental protection","41005","General environmental protection,purpose unspecified","","2004","2007","186226.0","207744.0","8867.9047619","9892.57142857"
"SL/000659","SL/000659_2404798","4","2404798","Northern Province","9.13333","-12.0","ADM1","first-order administrative division","6295630|6255146|SL|02","Earth|Africa|Sierra Leone|Northern Province","1","1","1","National Programme of Action for Adaptation to climate change","2004-11-15","start-actual","2007-12-31","end-actual","Global Environment Facility","DAC","Sierra Leone","SLE","410","General environmental protection","41005","General environmental protection,purpose unspecified","","2004","2007","186226.0","207744.0","8867.9047619","9892.57142857"
"SL/000659","SL/000659_2404859","2","2404859","Nitti","7.77287","-12.39864","PRT","port","6295630|6255146|SL|03|2404859","Earth|Africa|Sierra Leone|Southern Province|Nitti","3","2","1","National Programme of Action for Adaptation to climate change","2004-11-15","start-actual","2007-12-31","end-actual","Global Environment Facility","DAC","Sierra Leone","SLE","410","General environmental protection","41005","General environmental protection,purpose unspecified","","2004","2007","186226.0","207744.0","8867.9047619","9892.57142857"
"SL/001007","SL/001007_2408329","1","2408329","Kabala","9.58893","-11.55256","PPL","populated place","6295630|6255146|SL|02|2408329","Earth|Africa|Sierra Leone|Northern Province|Kabala","2","1","1","Kabala Water Supply","2006-06-26","start-actual","2013-12-31","end-actual","Arab Bank for Economic Development in Africa (BADEA)|Islamic Development Bank (IDB)","DAC","Sierra Leone","SLE","140","Water Supply and Sanitation","14020","Water supply and sanitation - large systems","Implementation","2006","2013","3092149.0","3091370.0","3092149.0","3091370.0"
"SL/001430","SL/001430_2408329","1","2408329","Kabala","9.58893","-11.55256","PPL","populated place","6295630|6255146|SL|02|2408329","Earth|Africa|Sierra Leone|Northern Province|Kabala","2","1","1","Rehabilitation/ Reconstruction of roads in Kono, Kailahun and Kabala","2010-11-01","start-actual","2011-11-30","","GOSL","SLE","Sierra Leone","SLE","210","Transport and Storage","21020","Road transport","Completion","2010","2011","18125323.0","18125323.0","4531330.75","4531330.75"
